City_ID,City,Country,Lat,Lng,Max Temp,Humidity,Cloudiness,Wind Speed,Current Description,Date
0,Bluff,NZ,-46.6,168.3333,55.8,54,2,15.68,clear sky,2022-02-26 05:19:45
1,Olafsvik,IS,64.8945,-23.7142,37.02,78,100,37.33,overcast clouds,2022-02-26 05:20:14
2,Geraldton,AU,-28.7667,114.6,81.01,61,13,17.27,few clouds,2022-02-26 05:21:14
3,Mackay,AU,-21.15,149.2,87.04,78,38,12.15,light rain,2022-02-26 05:20:04
4,Vardo,NO,70.3705,31.1107,24.4,56,94,12.5,overcast clouds,2022-02-26 05:21:18
5,Tasiilaq,GL,65.6145,-37.6368,24.17,60,100,53.17,overcast clouds,2022-02-26 05:19:35
6,Mar Del Plata,AR,-38.0023,-57.5575,66.87,71,0,3.44,clear sky,2022-02-26 05:20:35
7,Luderitz,NA,-26.6481,15.1594,65.23,85,0,13.49,clear sky,2022-02-26 05:21:06
8,Mataura,NZ,-46.1927,168.8643,55.47,43,4,7.7,clear sky,2022-02-26 05:19:29
9,Tricase,IT,39.9304,18.3553,36.75,70,94,4.85,overcast clouds,2022-02-26 05:25:32
10,Sabang,ID,5.8933,95.3214,79.99,82,88,22.7,overcast clouds,2022-02-26 05:25:32
11,Bredasdorp,ZA,-34.5322,20.0403,66.27,88,24,4.61,few clouds,2022-02-26 05:20:03
12,Albany,US,42.6001,-73.9662,13.95,71,71,4.43,broken clouds,2022-02-26 05:17:47
13,Cape Town,ZA,-33.9258,18.4232,67.12,86,0,13.8,clear sky,2022-02-26 05:19:48
14,Salinopolis,BR,-0.6136,-47.3561,78.73,87,98,10.87,overcast clouds,2022-02-26 05:25:33
15,Sakete,BJ,6.7362,2.6587,79.74,94,5,2.48,clear sky,2022-02-26 05:25:33
16,Tazovskiy,RU,67.4667,78.7,6.01,95,95,9.62,overcast clouds,2022-02-26 05:25:34
17,Chuy,UY,-33.6971,-53.4616,65.44,91,0,5.77,moderate rain,2022-02-26 05:20:10
18,Qaanaaq,GL,77.484,-69.3632,0.46,55,10,9.69,clear sky,2022-02-26 05:20:03
19,Klembivka,UA,48.3904,28.4109,36.54,75,100,9.48,overcast clouds,2022-02-26 05:25:34
20,Cherskiy,RU,68.75,161.3,-6.79,98,99,7.2,overcast clouds,2022-02-26 05:21:53
21,Atambua,ID,-9.1061,124.8925,76.84,84,100,8.77,overcast clouds,2022-02-26 05:20:10
22,Busselton,AU,-33.65,115.3333,80.71,46,23,15.12,few clouds,2022-02-26 05:20:04
23,Port Elizabeth,ZA,-33.918,25.5701,70.11,83,20,9.22,few clouds,2022-02-26 05:19:30
24,Padang,ID,-0.9492,100.3543,86.05,64,76,6.67,broken clouds,2022-02-26 05:19:45
25,Kodiak,US,57.79,-152.4072,38.71,81,75,13.8,broken clouds,2022-02-26 05:20:07
26,Kaitangata,NZ,-46.2817,169.8464,55.92,52,6,13.11,clear sky,2022-02-26 05:19:49
27,San Cristobal,VE,7.7669,-72.225,68.18,95,80,2.17,broken clouds,2022-02-26 05:22:25
28,Banda Aceh,ID,5.5577,95.3222,84.11,69,92,15.75,overcast clouds,2022-02-26 05:25:02
29,Codrington,AU,-38.2667,141.9667,75.4,57,92,17.27,overcast clouds,2022-02-26 05:19:34
30,Sao Gabriel Da Cachoeira,BR,-0.1303,-67.0892,73.49,99,100,2.19,overcast clouds,2022-02-26 05:25:36
31,Nome,US,64.5011,-165.4064,37.47,70,100,20.71,overcast clouds,2022-02-26 05:20:37
32,Hilo,US,19.7297,-155.09,74.93,83,75,5.75,light rain,2022-02-26 05:19:47
33,Vila Velha,BR,-20.3297,-40.2925,75.94,88,20,3.44,few clouds,2022-02-26 05:21:22
34,Esperance,AU,-33.8667,121.9,94.84,54,60,8.95,broken clouds,2022-02-26 05:20:01
35,Deli Tua,ID,3.5078,98.6839,78.51,89,75,9.22,light rain,2022-02-26 05:25:37
36,Bosaso,SO,11.2842,49.1816,76.98,83,40,0.0,scattered clouds,2022-02-26 05:25:37
37,Ojinaga,MX,29.5667,-104.4167,52.41,37,0,14.97,clear sky,2022-02-26 05:25:38
38,North Bend,US,43.4065,-124.2243,40.95,93,0,8.05,clear sky,2022-02-26 05:25:38
39,Rikitea,PF,-23.1203,-134.9692,79.97,71,6,9.8,clear sky,2022-02-26 05:19:33
40,Atuona,PF,-9.8,-139.0333,78.76,74,12,17.98,few clouds,2022-02-26 05:19:35
41,Nanortalik,GL,60.1432,-45.2371,9.37,88,100,39.24,light snow,2022-02-26 05:21:16
42,Kakching,IN,24.4833,93.9833,69.58,35,0,5.57,clear sky,2022-02-26 05:25:38
43,Hithadhoo,MV,-0.6,73.0833,83.3,72,18,10.25,few clouds,2022-02-26 05:19:40
44,Findochty,GB,57.6974,-2.901,48.9,80,100,14.0,overcast clouds,2022-02-26 05:25:39
45,Vaini,TO,-21.2,-175.2,84.36,84,75,10.36,broken clouds,2022-02-26 05:19:44
46,Machhlishahr,IN,25.6833,82.4167,75.15,32,0,7.25,clear sky,2022-02-26 05:25:39
47,Aklavik,CA,68.2191,-135.0107,-19.37,100,15,4.63,few clouds,2022-02-26 05:20:30
48,Hobart,AU,-42.8794,147.3294,72.23,63,75,10.36,broken clouds,2022-02-26 05:19:33
49,Hermanus,ZA,-34.4187,19.2345,66.9,92,0,8.41,clear sky,2022-02-26 05:17:08
50,Mount Gambier,AU,-37.8333,140.7667,79.56,47,7,12.91,clear sky,2022-02-26 05:22:25
51,Jamestown,US,42.097,-79.2353,21.09,65,100,8.05,mist,2022-02-26 05:14:48
52,Souillac,MU,-20.5167,57.5167,84.58,84,40,8.05,scattered clouds,2022-02-26 05:19:34
53,Faanui,PF,-16.4833,-151.75,82.02,73,15,16.28,few clouds,2022-02-26 05:21:54
54,Kutum,SD,14.2,24.6667,54.59,27,13,5.97,few clouds,2022-02-26 05:22:03
55,Puerto Ayora,EC,-0.7393,-90.3518,74.88,88,84,4.18,broken clouds,2022-02-26 05:20:48
56,Saldanha,ZA,-33.0117,17.9442,60.85,94,3,9.64,clear sky,2022-02-26 05:21:16
57,Santa Quiteria,BR,-4.3319,-40.1567,71.24,92,41,2.66,scattered clouds,2022-02-26 05:25:41
58,Norman Wells,CA,65.282,-126.8329,-16.56,76,20,5.75,few clouds,2022-02-26 05:19:56
59,Muravlenko,RU,63.7898,74.523,10.38,94,98,11.34,overcast clouds,2022-02-26 05:22:33
60,Tanete,ID,-3.9443,119.7848,88.57,55,98,8.57,overcast clouds,2022-02-26 05:25:41
61,Avarua,CK,-21.2078,-159.775,82.45,78,91,8.05,overcast clouds,2022-02-26 05:20:41
62,Ancud,CL,-41.8697,-73.8203,58.23,88,59,15.9,light rain,2022-02-26 05:16:51
63,Changji,CN,44.0167,87.3167,27.39,68,100,2.24,smoke,2022-02-26 05:19:59
64,Kapaa,US,22.0752,-159.319,76.98,76,20,13.8,few clouds,2022-02-26 05:20:05
65,Zhigansk,RU,66.7697,123.3711,-0.08,88,100,15.52,overcast clouds,2022-02-26 05:21:14
66,Dikson,RU,73.5069,80.5464,2.14,92,100,6.51,overcast clouds,2022-02-26 05:19:55
67,Luba,GQ,3.4568,8.5547,76.89,85,100,2.42,overcast clouds,2022-02-26 05:25:42
68,Yar-Sale,RU,66.8333,70.8333,11.44,92,56,9.51,broken clouds,2022-02-26 05:19:32
69,Ushuaia,AR,-54.8,-68.3,46.06,81,20,6.91,few clouds,2022-02-26 05:19:34
70,Castro,BR,-24.7911,-50.0119,65.82,90,97,3.6,overcast clouds,2022-02-26 05:19:40
71,San Clemente,US,33.427,-117.612,54.43,60,0,1.01,clear sky,2022-02-26 05:23:17
72,Lugo,ES,43.0,-7.5,36.23,100,0,2.53,clear sky,2022-02-26 05:25:43
73,Miramar,US,25.9873,-80.2323,76.01,79,40,9.22,scattered clouds,2022-02-26 05:25:43
74,East London,ZA,-33.0153,27.9116,68.94,88,75,3.44,broken clouds,2022-02-26 05:20:03
75,Ostrovnoy,RU,68.0531,39.5131,27.97,96,100,31.09,snow,2022-02-26 05:19:33
76,Ponta Do Sol,PT,32.6667,-17.1,60.06,81,52,8.72,broken clouds,2022-02-26 05:20:15
77,Husavik,IS,66.0449,-17.3389,37.31,72,19,19.39,few clouds,2022-02-26 05:19:50
78,New Norfolk,AU,-42.7826,147.0587,71.89,35,17,8.21,few clouds,2022-02-26 05:19:47
79,Nouadhibou,MR,20.931,-17.0347,62.58,88,0,16.11,clear sky,2022-02-26 05:25:44
80,Kurchum,KZ,48.5722,83.6542,14.18,88,99,3.06,overcast clouds,2022-02-26 05:25:44
81,Kloulklubed,PW,7.0419,134.2556,82.9,77,68,20.96,broken clouds,2022-02-26 05:21:33
82,Labuhan,ID,-6.8844,112.2051,84.54,68,55,7.23,moderate rain,2022-02-26 05:21:41
83,Saint-Philippe,RE,-21.3585,55.7679,83.79,84,90,9.55,overcast clouds,2022-02-26 05:20:16
84,Mahebourg,MU,-20.4081,57.7,84.49,84,40,8.05,scattered clouds,2022-02-26 05:21:09
85,Rocha,UY,-34.4833,-54.3333,61.54,64,0,6.87,clear sky,2022-02-26 05:19:39
86,Tougue,GN,11.4667,-11.6,76.44,31,94,2.93,overcast clouds,2022-02-26 05:25:45
87,Evensk,RU,61.95,159.2333,19.81,95,100,4.59,snow,2022-02-26 05:25:45
88,Abu Dhabi,AE,24.4667,54.3667,71.71,65,0,4.61,clear sky,2022-02-26 05:22:02
89,Lyubech,UA,51.7026,30.6569,30.06,94,62,5.53,broken clouds,2022-02-26 05:25:45
90,Ambulu,ID,-8.345,113.6058,83.84,74,29,4.14,scattered clouds,2022-02-26 05:20:12
91,Cockburn Town,TC,21.4612,-71.1419,77.23,76,1,17.45,clear sky,2022-02-26 05:22:17
92,Lompoc,US,34.6391,-120.4579,50.18,81,0,8.99,clear sky,2022-02-26 05:20:21
93,Mitu,CO,1.1983,-70.1733,71.8,99,100,0.16,overcast clouds,2022-02-26 05:24:56
94,Halifax,CA,44.6453,-63.5724,12.22,86,100,10.36,overcast clouds,2022-02-26 05:23:12
95,Puerto Escondido,MX,15.85,-97.0667,78.64,75,0,3.8,clear sky,2022-02-26 05:21:10
96,Tarakan,ID,3.3,117.6333,85.5,66,75,5.75,light rain,2022-02-26 05:20:27
97,Richards Bay,ZA,-28.783,32.0377,72.1,76,23,4.29,few clouds,2022-02-26 05:25:05
98,West Milford,US,41.1312,-74.3674,26.38,83,34,12.5,scattered clouds,2022-02-26 05:25:46
99,Naivasha,KE,-0.7167,36.4359,61.11,67,10,1.83,clear sky,2022-02-26 05:25:47
100,Santa Rosa,PH,14.3122,121.1114,89.58,66,99,16.28,overcast clouds,2022-02-26 05:21:13
101,Maniitsoq,GL,65.4167,-52.9,-12.46,90,100,2.3,overcast clouds,2022-02-26 05:25:47
102,Piran,SI,45.5278,13.5706,44.49,41,75,7.0,broken clouds,2022-02-26 05:25:48
103,Pandhana,IN,21.7,76.2167,83.62,17,4,1.36,clear sky,2022-02-26 05:25:48
104,Cairns,AU,-16.9167,145.7667,98.55,32,18,8.05,few clouds,2022-02-26 05:20:52
105,Barao De Melgaco,BR,-16.1944,-55.9675,77.52,92,42,0.85,scattered clouds,2022-02-26 05:25:49
106,Khatanga,RU,71.9667,102.5,-16.74,91,71,1.01,broken clouds,2022-02-26 05:20:23
107,Ust-Karsk,RU,52.7011,118.8077,22.93,60,5,6.89,clear sky,2022-02-26 05:25:49
108,Saint-Augustin,CA,51.226,-58.6502,-23.26,98,26,5.39,scattered clouds,2022-02-26 05:20:58
109,Teguldet,RU,57.3064,88.1667,23.94,89,100,8.93,overcast clouds,2022-02-26 05:25:50
110,Punta Arenas,CL,-53.15,-70.9167,46.51,81,40,13.8,scattered clouds,2022-02-26 05:19:29
111,Inongo,CD,-1.95,18.2667,72.73,91,71,7.02,broken clouds,2022-02-26 05:25:50
112,Launceston,AU,-41.45,147.1667,76.15,47,75,12.66,broken clouds,2022-02-26 05:25:50
113,Qasigiannguit,GL,68.8193,-51.1922,1.65,97,100,6.96,overcast clouds,2022-02-26 05:21:46
114,Sitka,US,57.0531,-135.33,42.69,61,100,17.27,light rain,2022-02-26 05:20:23
115,Yurimaguas,PE,-5.9,-76.0833,71.78,97,75,0.94,broken clouds,2022-02-26 05:24:03
116,Caravelas,BR,-17.7125,-39.2481,74.46,90,7,2.08,clear sky,2022-02-26 05:20:28
117,Trairi,BR,-3.2778,-39.2689,77.61,80,95,6.8,overcast clouds,2022-02-26 05:25:51
118,Nuuk,GL,64.1835,-51.7216,0.21,78,75,6.91,broken clouds,2022-02-26 05:20:56
119,Kolondieba,ML,11.0882,-6.8926,75.61,21,32,3.71,scattered clouds,2022-02-26 05:25:51
120,Nalut,LY,30.3333,10.85,51.78,29,68,6.85,broken clouds,2022-02-26 05:21:21
121,Paralimni,CY,35.0375,33.9833,56.43,87,5,1.01,clear sky,2022-02-26 05:25:52
122,Torbay,CA,47.6666,-52.7314,21.27,68,100,0.0,overcast clouds,2022-02-26 05:18:30
123,Jawhar,SO,2.7809,45.5005,79.32,73,96,12.46,overcast clouds,2022-02-26 05:25:52
124,Gat,IL,31.61,34.7642,54.39,100,73,9.8,broken clouds,2022-02-26 05:20:43
125,Mehran,IR,33.1222,46.1646,62.08,45,0,4.38,clear sky,2022-02-26 05:25:53
126,Vila Franca Do Campo,PT,37.7167,-25.4333,60.19,82,100,13.06,overcast clouds,2022-02-26 05:20:12
127,Horn Lake,US,34.9554,-90.0348,31.08,80,100,12.66,overcast clouds,2022-02-26 05:25:53
128,Vestmannaeyjar,IS,63.4427,-20.2734,39.6,63,100,36.66,light rain,2022-02-26 05:25:54
129,Te Anau,NZ,-45.4167,167.7167,60.76,41,32,7.02,scattered clouds,2022-02-26 05:19:47
130,Ouro Preto Do Oeste,BR,-10.7481,-62.2158,71.51,97,33,2.33,scattered clouds,2022-02-26 05:25:54
131,Bandarbeyla,SO,9.4942,50.8122,77.92,69,83,8.55,broken clouds,2022-02-26 05:19:31
132,Kyaikto,MM,17.3,97.0167,91.78,22,2,3.0,clear sky,2022-02-26 05:25:54
133,Margate,GB,51.3813,1.3862,40.95,90,2,10.67,clear sky,2022-02-26 05:23:02
134,San Miguel,SV,13.4833,-88.1833,80.26,78,75,2.3,broken clouds,2022-02-26 05:25:55
135,Verkhoyansk,RU,67.5447,133.385,-1.23,89,100,7.09,overcast clouds,2022-02-26 05:22:08
136,Dingle,PH,10.9995,122.6711,85.55,57,100,18.79,overcast clouds,2022-02-26 05:20:11
137,Kavieng,PG,-2.5744,150.7967,83.25,75,93,6.29,moderate rain,2022-02-26 05:19:42
138,Shizunai,JP,42.3339,142.3669,38.28,82,56,12.88,broken clouds,2022-02-26 05:25:55
139,Miechow,PL,50.3565,20.0279,34.59,75,12,4.5,few clouds,2022-02-26 05:25:56
140,Saint George,US,37.1041,-113.5841,37.63,41,0,5.99,clear sky,2022-02-26 05:17:20
141,Batemans Bay,AU,-35.7167,150.1833,68.92,97,100,5.91,light rain,2022-02-26 05:25:56
142,Saskylakh,RU,71.9167,114.0833,-14.04,96,46,4.61,scattered clouds,2022-02-26 05:20:43
143,Lillehammer,NO,61.1146,10.4674,8.01,91,12,3.83,few clouds,2022-02-26 05:25:57
144,Kiama,AU,-34.6833,150.8667,71.58,90,100,3.0,moderate rain,2022-02-26 05:25:57
145,Isangel,VU,-19.55,169.2667,82.51,83,100,0.0,overcast clouds,2022-02-26 05:20:48
146,Lufilufi,WS,-13.8745,-171.5986,78.58,90,100,16.02,light rain,2022-02-26 05:25:58
147,Buchanan,LR,5.8808,-10.0467,76.96,91,34,6.17,light rain,2022-02-26 05:25:58
148,Veraval,IN,20.9,70.3667,77.31,42,41,8.77,scattered clouds,2022-02-26 05:25:58
149,Mandal,IN,25.45,74.5667,77.52,18,44,4.21,scattered clouds,2022-02-26 05:25:58
150,Yellowknife,CA,62.456,-114.3525,-8.88,77,0,8.05,clear sky,2022-02-26 05:18:29
151,Haines Junction,CA,60.7522,-137.5108,33.75,64,100,8.05,overcast clouds,2022-02-26 05:20:02
152,Broome,US,42.2506,-75.833,18.37,79,100,8.05,overcast clouds,2022-02-26 05:19:38
153,Yevlax,AZ,40.6089,47.1492,44.82,93,100,3.44,mist,2022-02-26 05:25:59
154,Ingham,US,42.6,-84.3833,21.99,78,0,0.0,clear sky,2022-02-26 05:26:00
155,Constitucion,CL,-35.3333,-72.4167,57.25,84,0,3.98,clear sky,2022-02-26 05:20:21
156,Karoi,ZW,-16.8099,29.6925,63.79,91,66,2.77,broken clouds,2022-02-26 05:26:00
157,Nikolskoye,RU,59.7035,30.7861,33.69,91,95,9.8,overcast clouds,2022-02-26 05:20:25
158,Alice Springs,AU,-23.7,133.8833,96.22,43,40,12.66,scattered clouds,2022-02-26 05:21:50
159,Samana,DO,19.2056,-69.3369,72.25,83,6,6.46,clear sky,2022-02-26 05:26:01
160,Miandrivazo,MG,-19.5167,45.4667,78.93,83,99,2.39,overcast clouds,2022-02-26 05:26:01
161,Carnarvon,AU,-24.8667,113.6333,86.07,62,26,19.57,scattered clouds,2022-02-26 05:20:28
162,Akyab,MM,20.15,92.9,83.05,40,0,8.08,clear sky,2022-02-26 05:26:01
163,La Ronge,CA,55.1001,-105.2842,25.05,63,75,13.8,broken clouds,2022-02-26 05:26:02
164,Dunedin,NZ,-45.8742,170.5036,53.8,59,46,15.01,scattered clouds,2022-02-26 05:26:02
165,Ixtapa,MX,20.7,-105.2,70.23,90,3,2.44,clear sky,2022-02-26 05:26:02
166,Clyde River,CA,70.4692,-68.5914,-1.97,78,100,29.93,snow,2022-02-26 05:20:13
167,Guerrero Negro,MX,27.9769,-114.0611,58.64,55,68,12.39,broken clouds,2022-02-26 05:19:30
168,Sao Paulo De Olivenca,BR,-3.3783,-68.8725,72.37,100,99,1.59,light rain,2022-02-26 05:26:03
169,Lagoa,PT,39.05,-27.9833,59.77,90,91,24.38,overcast clouds,2022-02-26 05:19:42
170,Port Saint Lucie,US,27.2939,-80.3503,74.98,74,0,5.75,clear sky,2022-02-26 05:23:31
171,Westonaria,ZA,-26.3191,27.6486,61.09,64,94,5.19,overcast clouds,2022-02-26 05:26:03
172,Cidreira,BR,-30.1811,-50.2056,74.53,94,36,6.35,scattered clouds,2022-02-26 05:22:34
173,Khanu Woralaksaburi,TH,16.0617,99.8606,91.83,28,35,3.0,scattered clouds,2022-02-26 05:26:04
174,Tura,IN,25.5198,90.2201,77.95,44,2,3.18,clear sky,2022-02-26 05:22:23
175,Tadine,NC,-21.55,167.8833,76.96,85,100,11.45,overcast clouds,2022-02-26 05:26:04
176,Narsaq,GL,60.9167,-46.05,12.42,96,100,2.24,light snow,2022-02-26 05:19:56
177,Kruisfontein,ZA,-34.0033,24.7314,67.89,87,6,2.55,clear sky,2022-02-26 05:19:34
178,Ribeira Grande,PT,38.5167,-28.7,61.16,89,94,18.48,overcast clouds,2022-02-26 05:20:01
179,Zelenoborsk,RU,61.4669,64.0333,21.27,86,44,8.97,scattered clouds,2022-02-26 05:26:04
180,Barrow,US,71.2906,-156.7887,3.22,78,100,35.68,overcast clouds,2022-02-26 05:17:21
181,Namibe,AO,-15.1961,12.1522,76.41,81,91,6.02,overcast clouds,2022-02-26 05:20:44
182,Baykit,RU,61.67,96.37,21.29,91,100,1.92,overcast clouds,2022-02-26 05:20:34
183,Manzhouli,CN,49.6,117.4333,14.38,82,31,13.27,scattered clouds,2022-02-26 05:26:05
184,Mazatlan,MX,23.2167,-106.4167,65.91,87,0,3.0,clear sky,2022-02-26 05:21:31
185,Hirara,JP,24.8,125.2833,75.06,60,40,19.57,scattered clouds,2022-02-26 05:26:06
186,Tiksi,RU,71.6872,128.8694,-2.25,95,100,7.94,overcast clouds,2022-02-26 05:19:37
187,Kyzyl-Suu,KG,42.3414,78.0056,32.97,95,100,2.91,light snow,2022-02-26 05:26:06
188,Conceicao Do Araguaia,BR,-8.2578,-49.2647,73.96,92,11,1.81,few clouds,2022-02-26 05:26:06
189,Great Falls,US,47.5002,-111.3008,18.79,63,0,12.66,clear sky,2022-02-26 05:21:25
190,Bahia Blanca,AR,-38.7196,-62.2724,70.25,49,1,7.18,clear sky,2022-02-26 05:26:07
191,Ishigaki,JP,24.3448,124.1572,73.53,60,20,13.8,few clouds,2022-02-26 05:26:07
192,Auki,SB,-8.7676,160.7034,83.57,74,99,8.46,overcast clouds,2022-02-26 05:21:57
193,Lebu,CL,-37.6167,-73.65,59.4,95,42,8.95,scattered clouds,2022-02-26 05:16:13
194,Kokkola,FI,63.8385,23.1307,21.36,76,0,8.05,clear sky,2022-02-26 05:26:08
195,Namatanai,PG,-3.6667,152.4333,83.46,76,96,6.82,light rain,2022-02-26 05:21:54
196,Fortuna,US,40.5982,-124.1573,41.94,92,0,10.36,clear sky,2022-02-26 05:20:18
197,Gornopravdinsk,RU,60.05,69.9,19.15,93,61,8.32,broken clouds,2022-02-26 05:20:11
198,Butaritari,KI,3.0707,172.7902,82.04,77,21,17.31,few clouds,2022-02-26 05:20:07
199,Bonavista,CA,48.6499,-53.1147,20.12,61,99,11.23,overcast clouds,2022-02-26 05:21:27
200,Salalah,OM,17.0151,54.0924,72.57,60,5,1.81,clear sky,2022-02-26 05:21:38
201,Charters Towers,AU,-20.1,146.2667,98.28,20,20,6.26,few clouds,2022-02-26 05:26:08
202,Santiago,CL,-33.4569,-70.6483,70.99,44,0,6.91,clear sky,2022-02-26 05:26:09
203,Encs,HU,48.3333,21.1333,33.6,68,96,6.15,overcast clouds,2022-02-26 05:26:09
204,Moshenskoye,RU,58.5102,34.5911,30.99,95,100,11.52,light snow,2022-02-26 05:26:09
205,Znamenskoye,RU,57.1281,73.8282,18.77,92,88,6.8,overcast clouds,2022-02-26 05:26:10
206,Port Alfred,ZA,-33.5906,26.891,72.03,79,42,15.08,scattered clouds,2022-02-26 05:16:04
207,Coquimbo,CL,-29.9533,-71.3436,60.53,94,0,3.44,clear sky,2022-02-26 05:20:30
208,Belaya Gora,RU,68.5333,146.4167,-4.31,93,100,6.08,overcast clouds,2022-02-26 05:26:10
209,Itaituba,BR,-4.2761,-55.9836,72.64,99,92,1.43,light rain,2022-02-26 05:26:11
210,Garden City,US,42.3256,-83.331,24.98,75,100,5.75,overcast clouds,2022-02-26 05:21:15
211,Meulaboh,ID,4.1363,96.1285,78.21,82,100,2.24,overcast clouds,2022-02-26 05:21:21
212,Poum,NC,-20.2333,164.0167,76.89,90,100,26.8,overcast clouds,2022-02-26 05:21:20
213,Mnogovershinnyy,RU,53.9353,139.9242,14.14,66,35,4.03,scattered clouds,2022-02-26 05:26:13
214,Iqaluit,CA,63.7506,-68.5145,-18.67,69,100,13.8,overcast clouds,2022-02-26 05:22:21
215,Cabo San Lucas,MX,22.8909,-109.9124,69.51,73,78,1.99,broken clouds,2022-02-26 05:20:20
216,Swellendam,ZA,-34.0226,20.4417,62.98,85,9,2.24,clear sky,2022-02-26 05:24:34
217,Devils Lake,US,48.1128,-98.8651,3.18,80,0,11.5,clear sky,2022-02-26 05:26:14
218,Nemuro,JP,43.3236,145.575,37.83,77,16,15.79,few clouds,2022-02-26 05:20:59
219,Port Hedland,AU,-20.3167,118.5667,95.05,63,4,10.36,clear sky,2022-02-26 05:20:31
220,Klyuchi,RU,52.2667,79.1667,22.64,93,94,7.72,overcast clouds,2022-02-26 05:26:16
221,Lebanon,US,36.2081,-86.2911,33.58,82,100,8.05,overcast clouds,2022-02-26 05:26:16
222,Airai,TL,-8.9266,125.4092,66.13,84,100,5.77,overcast clouds,2022-02-26 05:19:36
223,Petropavlovsk-Kamchatskiy,RU,53.0452,158.6483,27.19,50,75,4.47,broken clouds,2022-02-26 05:21:55
224,Chokurdakh,RU,70.6333,147.9167,-5.17,98,100,4.81,overcast clouds,2022-02-26 05:19:46
225,Skibotn,NO,69.3913,20.2679,24.89,96,75,10.11,broken clouds,2022-02-26 05:26:17
226,Yangshe,CN,31.8899,120.6052,58.64,45,2,11.43,clear sky,2022-02-26 05:26:18
227,Pevek,RU,69.7008,170.3133,-4.41,95,100,4.76,overcast clouds,2022-02-26 05:19:38
228,Beringovskiy,RU,63.05,179.3167,23.32,95,100,15.12,light snow,2022-02-26 05:19:41
229,Ugoofaaru,MV,5.6667,73.0,83.01,70,41,11.9,scattered clouds,2022-02-26 05:21:16
230,Verkhnevilyuysk,RU,63.4453,120.3167,0.45,87,100,8.28,overcast clouds,2022-02-26 05:26:20
231,Denpasar,ID,-8.65,115.2167,83.86,83,20,8.05,few clouds,2022-02-26 05:26:20
232,Sulecin,PL,52.4443,15.1168,39.07,86,88,6.46,overcast clouds,2022-02-26 05:26:20
233,Upata,VE,8.0086,-62.3989,69.13,96,51,4.65,broken clouds,2022-02-26 05:25:06
234,Novikovo,RU,51.1537,37.8879,32.63,99,100,4.23,light snow,2022-02-26 05:26:21
235,Marawi,PH,7.9986,124.2928,72.64,68,94,9.31,overcast clouds,2022-02-26 05:24:47
236,Komyshnya,UA,50.1859,33.684,31.55,81,82,6.17,broken clouds,2022-02-26 05:26:21
237,Srandakan,ID,-7.9386,110.2506,84.49,66,98,5.37,overcast clouds,2022-02-26 05:26:21
238,Tuktoyaktuk,CA,69.4541,-133.0374,-25.6,75,0,0.0,clear sky,2022-02-26 05:19:39
239,Arraial Do Cabo,BR,-22.9661,-42.0278,74.91,87,9,8.28,clear sky,2022-02-26 05:19:37
240,Vysokogornyy,RU,50.1167,139.15,23.94,84,100,6.73,light snow,2022-02-26 05:26:22
241,Laguna,US,38.421,-121.4238,50.34,55,0,0.0,clear sky,2022-02-26 05:17:18
242,Ibotirama,BR,-12.1853,-43.2206,76.95,62,82,1.66,broken clouds,2022-02-26 05:25:40
243,Ilulissat,GL,69.2167,-51.1,1.42,85,75,6.91,light snow,2022-02-26 05:19:55
244,Bethel,US,41.3712,-73.414,26.04,58,0,10.36,clear sky,2022-02-26 05:20:54
245,Teluknaga,ID,-6.0989,106.6381,86.61,78,40,16.11,scattered clouds,2022-02-26 05:26:23
246,Razdolinsk,RU,58.4211,94.6658,23.95,91,100,9.69,overcast clouds,2022-02-26 05:26:23
247,Longyearbyen,SJ,78.2186,15.6401,1.24,66,75,14.97,broken clouds,2022-02-26 05:20:25
248,Sur,OM,22.5667,59.5289,78.03,44,0,1.07,clear sky,2022-02-26 05:22:58
249,Samfya,ZM,-11.3649,29.5565,63.82,93,100,4.05,overcast clouds,2022-02-26 05:26:23
250,Maua,BR,-23.6678,-46.4614,70.36,86,32,1.23,scattered clouds,2022-02-26 05:26:24
251,Dekar,BW,-21.5333,21.9333,67.66,71,56,7.58,broken clouds,2022-02-26 05:22:42
252,Prince Rupert,CA,54.3161,-130.3201,42.49,65,100,23.02,overcast clouds,2022-02-26 05:25:08
253,Samarai,PG,-10.6167,150.6667,80.35,82,100,19.24,moderate rain,2022-02-26 05:19:51
254,Macusani,PE,-14.0833,-70.4333,39.16,95,100,1.83,light rain,2022-02-26 05:26:24
255,Gubkinskiy,RU,64.434,76.5026,7.57,95,50,11.05,scattered clouds,2022-02-26 05:26:26
256,Boa Vista,BR,2.8197,-60.6733,80.58,74,75,6.91,broken clouds,2022-02-26 05:26:26
257,Ngunguru,NZ,-35.6167,174.5,74.16,61,1,6.85,clear sky,2022-02-26 05:26:26
258,Bambous Virieux,MU,-20.3428,57.7575,84.45,84,40,8.05,light rain,2022-02-26 05:19:43
259,Tigre,AR,-34.426,-58.5796,76.21,76,0,5.75,clear sky,2022-02-26 05:26:02
260,Komsomolskiy,UZ,40.4272,71.7189,50.72,50,100,2.3,haze,2022-02-26 05:26:27
261,Arlit,NE,18.7369,7.3853,62.89,14,0,3.69,clear sky,2022-02-26 05:22:53
262,Huanren,CN,41.2647,125.3667,34.32,49,100,6.64,overcast clouds,2022-02-26 05:26:27
263,Mount Pleasant,US,32.7941,-79.8626,64.99,95,5,0.0,clear sky,2022-02-26 05:26:28
264,Presidencia Roque Saenz Pena,AR,-26.7852,-60.4388,78.98,72,50,10.96,scattered clouds,2022-02-26 05:21:39
265,Rosarito,MX,32.3333,-117.0333,54.55,57,0,6.33,clear sky,2022-02-26 05:21:48
266,Bjornevatn,NO,69.6672,29.9847,17.94,79,42,10.36,scattered clouds,2022-02-26 05:26:28
267,Dongying,CN,37.4564,118.4856,47.16,16,0,18.03,clear sky,2022-02-26 05:26:28
268,Mirabad,AF,30.4362,61.8383,62.15,23,18,1.43,few clouds,2022-02-26 05:26:29
269,Baculin,PH,7.4525,126.5842,81.77,77,91,10.78,heavy intensity rain,2022-02-26 05:26:29
270,Kangaatsiaq,GL,68.3065,-53.4641,-9.99,97,100,13.29,overcast clouds,2022-02-26 05:20:47
271,Naze,JP,28.3667,129.4833,59.92,59,29,7.38,scattered clouds,2022-02-26 05:19:49
272,Atbasar,KZ,51.8,68.3333,24.98,86,100,4.85,overcast clouds,2022-02-26 05:22:50
273,Moree,AU,-29.4667,149.85,73.42,73,100,14.97,light rain,2022-02-26 05:26:31
274,Solano,US,38.2333,-121.9511,50.5,63,0,0.0,clear sky,2022-02-26 05:26:31
275,Necochea,AR,-38.5473,-58.7368,63.55,56,0,8.12,clear sky,2022-02-26 05:26:32
276,Domoni,KM,-12.2569,44.5319,81.97,81,78,5.28,broken clouds,2022-02-26 05:26:32
277,Kayes,ML,14.0,-11.0,82.89,10,0,2.42,clear sky,2022-02-26 05:26:32
278,Bustamante,MX,26.5333,-100.5,44.71,67,37,4.09,scattered clouds,2022-02-26 05:26:32
279,Jizan,SA,17.3333,42.6667,79.74,74,14,4.88,few clouds,2022-02-26 05:26:33
280,Riverton,US,40.5219,-111.9391,22.24,69,0,6.91,clear sky,2022-02-26 05:26:33
281,Robertson,US,36.5167,-86.8667,32.05,86,100,3.0,overcast clouds,2022-02-26 05:26:33
282,Hasaki,JP,35.7333,140.8333,57.49,41,1,8.41,clear sky,2022-02-26 05:21:04
283,Hervey Bay,AU,-25.2986,152.8535,84.31,84,51,8.99,broken clouds,2022-02-26 05:22:02
284,Kedougou,SN,12.5579,-12.1743,79.0,48,5,7.85,clear sky,2022-02-26 05:26:34
285,Quang Ngai,VN,15.1167,108.8,69.44,90,100,6.08,overcast clouds,2022-02-26 05:26:34
286,Kashi,CN,39.4547,75.9797,42.01,45,75,6.71,broken clouds,2022-02-26 05:26:35
287,Mantua,IT,45.1667,10.7833,41.7,89,64,3.0,broken clouds,2022-02-26 05:26:35
288,Flin Flon,CA,54.7682,-101.865,22.87,91,100,11.32,overcast clouds,2022-02-26 05:26:35
289,Takapau,NZ,-40.0333,176.35,70.18,73,37,6.6,scattered clouds,2022-02-26 05:26:36
290,Mehamn,NO,71.0357,27.8492,20.44,69,89,17.58,overcast clouds,2022-02-26 05:26:37
291,Zemio,CF,5.0314,25.1361,69.76,25,99,1.48,overcast clouds,2022-02-26 05:26:38
292,Halberstadt,DE,51.9,11.05,38.73,91,74,12.39,broken clouds,2022-02-26 05:26:38
293,Portland,US,45.5234,-122.6762,39.61,60,0,10.0,clear sky,2022-02-26 05:20:07
294,Kita,ML,13.0349,-9.4895,77.95,14,1,2.84,clear sky,2022-02-26 05:26:38
295,Nara,JP,34.6851,135.8049,55.96,34,3,8.59,clear sky,2022-02-26 05:22:19
296,Buala,SB,-8.145,159.5921,84.6,76,92,9.57,light rain,2022-02-26 05:21:47
297,Campoverde,PE,-8.4753,-74.8058,72.66,99,100,1.03,overcast clouds,2022-02-26 05:23:08
298,Jaisalmer,IN,26.9147,70.9181,70.07,39,31,15.43,scattered clouds,2022-02-26 05:22:15
299,Ossora,RU,59.2353,163.0719,10.74,92,87,2.33,overcast clouds,2022-02-26 05:21:26
300,Olinda,BR,-8.0089,-34.8553,82.13,69,40,6.91,scattered clouds,2022-02-26 05:26:40
301,Palu,ID,-0.8917,119.8707,86.7,66,85,4.34,overcast clouds,2022-02-26 05:26:41
302,Upernavik,GL,72.7868,-56.1549,-12.89,85,89,5.59,overcast clouds,2022-02-26 05:19:35
303,Manta,EC,-0.95,-80.7333,80.38,78,75,2.3,broken clouds,2022-02-26 05:26:42
304,Moron,AR,-34.6534,-58.6198,75.96,73,3,6.08,clear sky,2022-02-26 05:26:43
305,Asau,RO,46.4333,26.4,38.95,79,98,3.78,overcast clouds,2022-02-26 05:20:46
306,Nhulunbuy,AU,-12.2333,136.7667,86.61,62,40,26.46,scattered clouds,2022-02-26 05:25:14
307,Khani,GE,41.9563,42.9566,38.77,98,94,0.81,overcast clouds,2022-02-26 05:20:24
308,Thinadhoo,MV,0.5333,72.9333,83.26,73,16,12.39,few clouds,2022-02-26 05:26:46
309,Westport,US,41.1415,-73.3579,28.36,63,0,11.5,clear sky,2022-02-26 05:19:58
310,Severo-Kurilsk,RU,50.6789,156.125,27.59,77,94,23.71,light snow,2022-02-26 05:20:01
311,Tocopilla,CL,-22.092,-70.1979,69.33,80,52,4.18,broken clouds,2022-02-26 05:26:49
312,Khilok,RU,51.3674,110.4676,22.51,82,100,14.23,overcast clouds,2022-02-26 05:22:55
313,Aripuana,BR,-9.1667,-60.6333,71.85,99,79,0.78,broken clouds,2022-02-26 05:22:09
314,Mecca,SA,21.4267,39.8261,66.87,35,0,9.48,clear sky,2022-02-26 05:17:11
315,Batticaloa,LK,7.7102,81.6924,81.36,77,25,10.02,scattered clouds,2022-02-26 05:26:51
316,Kihei,US,20.785,-156.4656,74.84,81,0,18.41,clear sky,2022-02-26 05:25:09
317,Mechanicsville,US,37.6088,-77.3733,42.93,65,20,8.05,few clouds,2022-02-26 05:26:52
318,Belorechensk,RU,44.76,39.87,43.52,89,100,2.57,overcast clouds,2022-02-26 05:26:52
319,Lavrentiya,RU,65.5833,-171.0,24.31,93,100,12.35,overcast clouds,2022-02-26 05:25:12
320,Waipawa,NZ,-41.4122,175.5153,64.45,73,35,10.49,scattered clouds,2022-02-26 05:24:54
321,Nabire,ID,-3.3667,135.4833,83.14,72,90,4.63,overcast clouds,2022-02-26 05:26:53
322,Lae,PG,-6.7221,146.9847,90.27,68,100,9.71,overcast clouds,2022-02-26 05:26:54
323,Georgetown,MY,5.4112,100.3354,85.93,74,20,9.22,few clouds,2022-02-26 05:20:08
324,Yueyang,CN,29.3333,113.0919,56.1,62,98,5.5,overcast clouds,2022-02-26 05:26:54
325,Grand Gaube,MU,-20.0064,57.6608,84.6,78,14,5.99,few clouds,2022-02-26 05:22:21
326,Tete,MZ,-16.1564,33.5867,78.89,89,40,0.0,scattered clouds,2022-02-26 05:26:54
327,Fukue,JP,32.6881,128.8419,55.76,44,20,13.8,few clouds,2022-02-26 05:26:55
328,Male,MV,4.1748,73.5089,87.75,66,20,16.11,few clouds,2022-02-26 05:26:55
329,Acajutla,SV,13.5928,-89.8275,78.8,74,10,5.12,clear sky,2022-02-26 05:26:55
330,Byron Bay,AU,-28.65,153.6167,77.11,87,100,14.65,moderate rain,2022-02-26 05:21:02
331,Taoudenni,ML,22.6783,-3.9836,77.0,13,87,11.1,overcast clouds,2022-02-26 05:20:47
332,Podosinovets,RU,60.2776,47.0659,25.47,90,100,12.1,light snow,2022-02-26 05:26:56
333,Nioro,GM,13.35,-15.75,67.39,55,5,7.56,clear sky,2022-02-26 05:26:56
334,Saint Anthony,US,45.0205,-93.218,6.66,77,0,5.75,clear sky,2022-02-26 05:23:13
335,Shatki,RU,55.1887,44.1249,31.14,97,100,7.92,light snow,2022-02-26 05:26:56
336,Atar,MR,20.5169,-13.0499,73.72,32,100,6.82,overcast clouds,2022-02-26 05:26:57
337,Teya,RU,60.3778,92.6267,22.8,89,100,7.61,light snow,2022-02-26 05:26:57
338,Le Port,RE,-20.9373,55.2919,84.51,79,74,2.84,broken clouds,2022-02-26 05:26:57
339,Karlshamn,SE,56.1706,14.8619,30.69,81,8,9.62,clear sky,2022-02-26 05:26:58
340,Kavaratti,IN,10.5669,72.642,81.16,70,63,6.42,broken clouds,2022-02-26 05:19:17
341,Touros,BR,-5.1989,-35.4608,79.7,71,90,10.94,overcast clouds,2022-02-26 05:21:01
342,Baikunthpur,IN,23.25,82.55,80.04,20,0,8.37,clear sky,2022-02-26 05:26:58
343,Jerecuaro,MX,20.15,-100.5167,60.98,65,90,3.76,overcast clouds,2022-02-26 05:26:58
344,Mombetsu,JP,44.3525,143.3525,42.82,39,75,16.11,broken clouds,2022-02-26 05:27:02
345,Leningradskiy,RU,69.3833,178.4167,12.87,95,100,5.86,overcast clouds,2022-02-26 05:20:05
346,Piranhas,BR,-16.4269,-51.8222,72.77,88,11,4.18,few clouds,2022-02-26 05:27:02
347,Gayny,RU,60.3071,54.3241,23.5,87,100,11.01,overcast clouds,2022-02-26 05:20:59
348,Cabedelo,BR,-6.9811,-34.8339,79.47,73,99,7.9,overcast clouds,2022-02-26 05:27:03
349,Ponta Delgada,PT,37.7333,-25.6667,60.49,88,40,12.66,scattered clouds,2022-02-26 05:21:32
350,Hobyo,SO,5.3505,48.5268,79.77,73,43,11.74,scattered clouds,2022-02-26 05:19:43
351,Berlevag,NO,70.8578,29.0864,21.09,63,93,15.86,overcast clouds,2022-02-26 05:19:43
352,Deputatskiy,RU,69.3,139.9,-9.35,96,100,4.12,overcast clouds,2022-02-26 05:21:51
353,La Asuncion,VE,11.0333,-63.8628,83.93,74,88,3.44,overcast clouds,2022-02-26 05:27:04
354,Victoria,HK,22.2855,114.1577,70.95,72,28,10.0,scattered clouds,2022-02-26 05:20:56
355,Ahvaz,IR,31.3203,48.6693,64.35,77,75,2.3,broken clouds,2022-02-26 05:27:04
356,Mutoko,ZW,-17.397,32.2268,63.46,85,84,3.2,broken clouds,2022-02-26 05:27:04
357,Thompson,CA,55.7435,-97.8558,14.16,79,100,11.5,overcast clouds,2022-02-26 05:19:50
358,La Solana,ES,38.9442,-3.2381,44.42,74,90,8.25,overcast clouds,2022-02-26 05:27:05
359,Eirunepe,BR,-6.6603,-69.8736,71.89,99,98,1.81,moderate rain,2022-02-26 05:25:49
360,Port Lincoln,AU,-34.7333,135.8667,72.0,55,49,11.56,scattered clouds,2022-02-26 05:20:54
361,Havoysund,NO,70.9963,24.6622,22.08,87,100,15.99,snow,2022-02-26 05:27:05
362,Yaan,NG,7.3833,8.5667,73.76,17,12,2.82,few clouds,2022-02-26 05:21:58
363,Esmeraldas,BR,-19.7625,-44.3139,72.46,94,18,3.62,few clouds,2022-02-26 05:21:30
364,Batagay-Alyta,RU,67.8006,130.4114,0.16,93,100,11.97,light snow,2022-02-26 05:20:30
365,Hay River,CA,60.8156,-115.7999,-4.02,84,75,2.3,broken clouds,2022-02-26 05:19:45
366,Lensk,RU,60.7253,114.9278,2.75,84,99,5.37,overcast clouds,2022-02-26 05:27:06
367,Paamiut,GL,61.994,-49.6678,-4.61,93,100,17.45,overcast clouds,2022-02-26 05:22:41
368,Tevaitoa,PF,-16.7833,-151.5,82.15,73,16,15.41,few clouds,2022-02-26 05:27:08
369,Ballina,AU,-28.8667,153.5667,77.18,88,100,16.11,light rain,2022-02-26 05:27:08
370,Teruel,ES,40.6667,-0.6667,42.76,87,9,4.16,clear sky,2022-02-26 05:27:09
371,Jand,PK,33.4299,72.0193,57.25,61,0,2.44,clear sky,2022-02-26 05:27:09
372,Rawlins,US,41.7911,-107.2387,12.42,66,0,14.97,clear sky,2022-02-26 05:27:09
373,Kapit,MY,2.0167,112.9333,93.79,47,79,1.92,broken clouds,2022-02-26 05:20:08
374,Fort Nelson,CA,58.8053,-122.7002,26.19,74,75,4.61,broken clouds,2022-02-26 05:21:00
375,Aksu,CN,41.1231,80.2644,42.85,29,100,1.48,overcast clouds,2022-02-26 05:27:10
376,Sri Aman,MY,1.2376,111.4621,91.45,66,40,2.3,scattered clouds,2022-02-26 05:27:10
377,Ambarawa,ID,-7.2633,110.3975,80.37,79,95,3.02,overcast clouds,2022-02-26 05:27:10
378,Pundaguitan,PH,6.3711,126.1689,79.9,80,100,13.13,overcast clouds,2022-02-26 05:27:11
379,Faya,SA,18.3851,42.4509,59.11,41,6,4.38,clear sky,2022-02-26 05:19:32
380,Pindiga,NG,9.9833,10.9333,65.91,21,31,9.71,scattered clouds,2022-02-26 05:27:12
381,Pisco,PE,-13.7,-76.2167,68.05,83,0,8.05,clear sky,2022-02-26 05:21:17
382,Bullhead City,US,35.1478,-114.5683,56.01,19,0,21.85,clear sky,2022-02-26 05:25:25
383,Juneau,US,58.3019,-134.4197,37.4,95,100,16.11,light rain,2022-02-26 05:27:12
384,Balaghat,IN,21.8,80.1833,83.35,20,16,6.55,few clouds,2022-02-26 05:27:13
385,College,US,64.8569,-147.8028,38.86,64,75,10.36,broken clouds,2022-02-26 05:22:30
386,Suluq,LY,31.6682,20.2521,49.39,78,39,4.16,scattered clouds,2022-02-26 05:27:13
387,Monterey,US,36.2505,-121.2516,43.09,60,0,5.46,clear sky,2022-02-26 05:27:13
388,Abapo,BO,-18.8333,-63.4667,65.84,97,56,1.23,broken clouds,2022-02-26 05:27:14
389,Coos Bay,US,43.3665,-124.2179,41.02,93,0,8.05,clear sky,2022-02-26 05:21:22
390,Urambo,TZ,-5.0667,32.05,64.8,96,98,2.8,light rain,2022-02-26 05:27:14
391,Quesnel,CA,52.9999,-122.5029,23.5,80,0,2.3,clear sky,2022-02-26 05:27:15
392,Minchinabad,PK,30.163,73.5685,68.13,53,7,15.5,clear sky,2022-02-26 05:27:15
393,Yanam,IN,16.7333,82.2167,79.2,39,14,7.49,few clouds,2022-02-26 05:27:15
394,Isaszeg,HU,47.5301,19.4021,36.91,52,0,8.05,clear sky,2022-02-26 05:27:16
395,Pucara,PE,-15.9803,-71.4606,42.89,83,100,2.48,overcast clouds,2022-02-26 05:27:16
396,Korhogo,CI,9.45,-5.6333,73.45,34,46,3.09,scattered clouds,2022-02-26 05:20:32
397,Sao Filipe,CV,14.8961,-24.4956,67.44,78,10,16.49,clear sky,2022-02-26 05:19:57
398,Cortes,ES,41.9395,-1.4396,40.44,74,100,4.76,overcast clouds,2022-02-26 05:27:18
399,Zhezkazgan,KZ,47.8043,67.7144,28.38,93,100,20.13,light snow,2022-02-26 05:22:24
400,Bubaque,GW,11.2833,-15.8333,74.16,68,3,15.46,clear sky,2022-02-26 05:27:18
401,Slave Lake,CA,55.2834,-114.769,17.58,79,0,0.0,clear sky,2022-02-26 05:20:36
402,Abu Kamal,SY,34.4506,40.9171,53.31,68,38,9.55,scattered clouds,2022-02-26 05:27:19
403,Dalvik,IS,65.9702,-18.5286,37.33,78,6,15.14,clear sky,2022-02-26 05:27:19
404,Gaoua,BF,10.2992,-3.2508,77.29,17,18,3.18,few clouds,2022-02-26 05:27:19
405,Bridgewater,CA,44.3835,-64.5155,13.68,85,98,16.11,overcast clouds,2022-02-26 05:27:20
406,Alofi,NU,-19.0595,-169.9187,80.49,83,96,6.91,overcast clouds,2022-02-26 05:19:42
407,Charleston,US,32.7766,-79.9309,66.36,95,20,3.44,few clouds,2022-02-26 05:27:21
408,Inhambane,MZ,-23.865,35.3833,74.89,86,9,8.39,clear sky,2022-02-26 05:20:32
409,Itarema,BR,-2.9248,-39.9167,78.15,80,58,8.55,broken clouds,2022-02-26 05:22:39
410,Campos Do Jordao,BR,-22.7394,-45.5914,60.96,95,39,2.89,scattered clouds,2022-02-26 05:27:23
411,Verkhnetulomskiy,RU,68.6073,31.7962,21.33,83,100,6.8,overcast clouds,2022-02-26 05:27:25
412,Kulu,TR,39.0951,33.0799,34.79,83,98,8.32,overcast clouds,2022-02-26 05:27:26
413,Mersing,MY,2.4312,103.8405,84.11,74,40,5.75,scattered clouds,2022-02-26 05:27:26
414,Moose Factory,CA,51.2585,-80.6094,10.4,52,100,13.8,overcast clouds,2022-02-26 05:27:28
415,Labrea,BR,-7.2586,-64.7981,69.69,99,90,2.24,overcast clouds,2022-02-26 05:27:29
416,Hualmay,PE,-11.0964,-77.6139,70.97,88,100,7.14,overcast clouds,2022-02-26 05:27:29
417,Robertsport,LR,6.7533,-11.3686,78.15,91,84,9.53,broken clouds,2022-02-26 05:27:29
418,Wajir,KE,1.7471,40.0573,78.76,73,75,10.36,broken clouds,2022-02-26 05:27:30
419,Snyder,US,32.7179,-100.9176,30.34,59,0,10.36,clear sky,2022-02-26 05:27:31
420,Senador Jose Porfirio,BR,-2.5908,-51.9542,73.36,98,100,1.95,moderate rain,2022-02-26 05:27:32
421,Umm Lajj,SA,25.0213,37.2685,64.11,51,0,10.38,clear sky,2022-02-26 05:27:32
422,Cap Malheureux,MU,-19.9842,57.6142,84.69,78,15,5.99,few clouds,2022-02-26 05:21:47
423,Jimo,CN,36.3897,120.4622,51.58,40,21,26.84,few clouds,2022-02-26 05:27:33
424,Kiunga,PG,-6.1219,141.2906,91.81,48,96,2.75,moderate rain,2022-02-26 05:22:32
425,Nishihara,JP,26.1842,127.7558,69.85,58,75,16.11,broken clouds,2022-02-26 05:27:34
426,Rudbar,AF,30.15,62.6,62.87,17,9,0.65,clear sky,2022-02-26 05:20:31
427,Sarkand,KZ,45.41,79.9186,34.99,73,99,1.81,overcast clouds,2022-02-26 05:27:36
428,Goderich,CA,43.7501,-81.7165,21.52,68,34,9.22,scattered clouds,2022-02-26 05:21:12
429,Povenets,RU,62.8487,34.8262,29.25,96,100,7.65,overcast clouds,2022-02-26 05:27:37
430,Kochubey,RU,44.3861,46.5825,43.27,85,23,8.97,few clouds,2022-02-26 05:27:37
431,Oranjemund,NA,-28.55,16.4333,63.77,93,96,10.78,overcast clouds,2022-02-26 05:20:49
432,Huarmey,PE,-10.0681,-78.1522,72.32,85,100,7.31,overcast clouds,2022-02-26 05:20:38
433,Guiratinga,BR,-16.3494,-53.7583,71.6,91,1,2.42,clear sky,2022-02-26 05:27:42
434,Biak,ID,-0.9131,122.8766,85.59,58,93,6.91,overcast clouds,2022-02-26 05:27:42
435,Bilma,NE,18.6853,12.9164,59.85,23,0,6.26,clear sky,2022-02-26 05:27:43
436,Lugovoy,KZ,42.9472,72.7644,45.34,54,100,3.02,overcast clouds,2022-02-26 05:27:43
437,Key West,US,24.5557,-81.7826,75.0,78,0,8.05,clear sky,2022-02-26 05:27:43
438,Tuatapere,NZ,-46.1333,167.6833,55.81,48,10,7.05,clear sky,2022-02-26 05:20:53
439,Aban,RU,56.67,96.06,26.06,86,100,10.98,overcast clouds,2022-02-26 05:27:44
440,Adrar,MR,20.5022,-10.0711,71.4,31,100,9.78,overcast clouds,2022-02-26 05:20:44
441,Moindou,NC,-21.6924,165.677,84.15,77,100,9.42,light rain,2022-02-26 05:27:45
442,Antofagasta,CL,-23.65,-70.4,63.68,80,18,6.67,few clouds,2022-02-26 05:27:45
443,Baraki Barak,AF,33.9675,68.9486,29.57,41,0,2.89,clear sky,2022-02-26 05:27:45
444,Oktyabrskiy,RU,54.4815,53.471,18.1,97,79,3.71,broken clouds,2022-02-26 05:27:46
445,Annau,TM,37.8876,58.516,47.7,66,13,16.11,few clouds,2022-02-26 05:27:46
446,Coihaique,CL,-45.5752,-72.0662,49.95,93,100,2.3,light rain,2022-02-26 05:22:23
447,Aykhal,RU,66.0,111.5,-3.59,78,3,5.55,clear sky,2022-02-26 05:21:51
448,Fakel,RU,57.6325,53.0252,25.52,92,100,9.44,overcast clouds,2022-02-26 05:27:47
449,Jiexiu,CN,37.0244,111.9125,43.88,21,0,10.94,clear sky,2022-02-26 05:27:47
450,Acapulco,MX,16.8634,-99.8901,78.62,83,40,2.3,scattered clouds,2022-02-26 05:17:47
451,San Rafael,AR,-34.6177,-68.3301,70.83,66,0,6.6,clear sky,2022-02-26 05:16:58
452,Carballo,ES,43.213,-8.691,46.9,71,0,3.91,clear sky,2022-02-26 05:27:47
453,Lakes Entrance,AU,-37.8811,147.981,69.57,84,100,10.71,overcast clouds,2022-02-26 05:20:57
454,Carlsbad,US,33.1581,-117.3506,55.29,76,0,3.44,clear sky,2022-02-26 05:23:53
455,Port Blair,IN,11.6667,92.75,86.04,70,40,11.5,scattered clouds,2022-02-26 05:27:49
456,Puerto Gaitan,CO,4.3133,-72.0816,82.29,48,38,7.02,scattered clouds,2022-02-26 05:26:16
457,Hokitika,NZ,-42.7167,170.9667,67.64,62,70,9.31,broken clouds,2022-02-26 05:27:49
458,Sola,VU,-13.8833,167.55,82.9,74,100,11.23,moderate rain,2022-02-26 05:22:22
459,Akdagmadeni,TR,39.6603,35.8836,32.72,97,100,5.35,light snow,2022-02-26 05:27:50
460,San Carlos,VE,9.6612,-68.5827,76.21,72,100,3.89,overcast clouds,2022-02-26 05:27:50
461,Wanaka,NZ,-44.7,169.15,63.1,54,95,1.99,overcast clouds,2022-02-26 05:27:50
462,Novyy Nekouz,RU,57.9029,38.07,28.81,95,100,9.71,overcast clouds,2022-02-26 05:27:52
463,Orlik,RU,52.5178,99.825,21.27,71,82,6.11,broken clouds,2022-02-26 05:27:52
464,Pingshan,CN,22.9938,114.7131,67.89,57,1,4.34,clear sky,2022-02-26 05:27:52
465,Finote Selam,ET,10.7,37.2667,65.5,52,100,1.88,overcast clouds,2022-02-26 05:27:53
466,Sawang Daen Din,TH,17.4753,103.4575,84.18,45,51,4.83,broken clouds,2022-02-26 05:27:53
467,Lata,PT,40.1629,-8.3327,52.05,69,100,3.98,overcast clouds,2022-02-26 05:27:53
468,Flinders,AU,-34.5833,150.8552,71.38,90,100,4.0,moderate rain,2022-02-26 05:19:46
469,Talcahuano,CL,-36.7167,-73.1167,60.48,94,100,4.61,overcast clouds,2022-02-26 05:22:04
470,Sakakah,SA,29.9697,40.2064,49.57,60,0,5.21,clear sky,2022-02-26 05:21:28
471,Monte Patria,CL,-30.6919,-70.9467,69.49,55,0,1.86,clear sky,2022-02-26 05:27:54
472,Marovoay,MG,-16.1,46.6333,84.34,85,100,0.81,overcast clouds,2022-02-26 05:27:54
473,Vung Tau,VN,10.346,107.0843,83.79,62,23,17.92,few clouds,2022-02-26 05:26:26
474,Mana,GF,5.6592,-53.7767,76.28,91,99,12.17,light rain,2022-02-26 05:27:55
475,Bengkulu,ID,-3.8004,102.2655,84.34,62,96,7.16,overcast clouds,2022-02-26 05:20:14
476,Sinazongwe,ZM,-17.2614,27.4618,72.41,79,0,1.63,light rain,2022-02-26 05:27:55
477,Werda,BW,-25.2667,23.2833,69.62,60,62,8.57,broken clouds,2022-02-26 05:27:55
478,Palauig,PH,15.435,119.9045,83.62,66,12,9.48,few clouds,2022-02-26 05:19:28
479,Mahanje,TZ,-9.9333,35.3333,65.64,95,100,2.04,light rain,2022-02-26 05:27:56
480,Jinji,CN,23.2281,110.8261,68.79,56,0,3.11,clear sky,2022-02-26 05:27:56
481,Trencin,SK,48.8333,18.25,31.26,73,57,3.58,broken clouds,2022-02-26 05:27:56
482,Pangnirtung,CA,66.1451,-65.7125,-23.35,98,100,2.35,overcast clouds,2022-02-26 05:22:36
483,Tautira,PF,-17.7333,-149.15,84.22,73,47,14.45,scattered clouds,2022-02-26 05:21:28
484,Tabou,CI,4.423,-7.3528,77.23,92,11,7.02,few clouds,2022-02-26 05:27:57
485,High Level,CA,58.5169,-117.136,21.31,79,100,5.75,overcast clouds,2022-02-26 05:21:23
486,Chapadinha,BR,-3.7417,-43.3603,72.05,99,100,2.37,overcast clouds,2022-02-26 05:27:57
487,Grindavik,IS,63.8424,-22.4338,36.07,80,75,23.02,broken clouds,2022-02-26 05:19:41
488,Pochutla,MX,15.7432,-96.4661,76.82,80,1,3.8,clear sky,2022-02-26 05:22:33
489,Unai,BR,-16.3575,-46.9061,69.69,92,19,0.65,few clouds,2022-02-26 05:27:57
490,Gold Coast,AU,-28.0,153.4333,74.25,96,75,14.97,light rain,2022-02-26 05:15:25
491,Rio Grande,BR,-32.035,-52.0986,73.51,95,1,4.85,clear sky,2022-02-26 05:20:54
492,Sena Madureira,BR,-9.0656,-68.6569,72.39,99,77,2.28,broken clouds,2022-02-26 05:27:58
493,Nishiwaki,JP,34.9833,134.9667,53.98,40,23,9.08,few clouds,2022-02-26 05:27:58
494,Kondinskoye,RU,59.6481,67.41,18.75,92,24,9.4,few clouds,2022-02-26 05:27:59
495,Saint-Georges,GD,12.0564,-61.7485,76.68,83,75,11.5,broken clouds,2022-02-26 05:27:59
496,San Lawrenz,MT,36.0553,14.204,52.86,89,31,1.01,scattered clouds,2022-02-26 05:27:59
497,Half Moon Bay,US,37.4636,-122.4286,50.61,74,0,6.91,clear sky,2022-02-26 05:20:51
498,Kota Kinabalu,MY,5.9749,116.0724,89.58,62,20,8.05,few clouds,2022-02-26 05:24:45
499,Tezu,IN,27.9167,96.1667,76.24,38,58,4.03,broken clouds,2022-02-26 05:28:00
500,Koroni,GR,36.8,21.95,50.07,74,24,7.36,few clouds,2022-02-26 05:28:00
501,Katsuura,JP,35.1333,140.3,55.51,49,1,11.41,clear sky,2022-02-26 05:19:31
502,Lasa,IT,46.6166,10.7002,32.61,93,58,6.58,broken clouds,2022-02-26 05:21:30
503,Chifeng,CN,42.2683,118.9636,34.43,22,0,18.97,clear sky,2022-02-26 05:22:01
504,Rio Gallegos,AR,-51.6226,-69.2181,48.25,81,0,2.3,clear sky,2022-02-26 05:28:01
505,Roald,NO,62.5833,6.1333,39.34,56,75,13.8,light rain,2022-02-26 05:28:01
506,Karlskrona,SE,56.1616,15.5866,30.65,79,20,10.69,few clouds,2022-02-26 05:28:01
507,Talnakh,RU,69.4865,88.3972,7.21,95,100,6.15,light snow,2022-02-26 05:20:50
508,Christchurch,NZ,-43.5333,172.6333,59.92,64,100,18.41,overcast clouds,2022-02-26 05:27:14
509,Santa Rosalia,MX,27.3167,-112.2833,53.15,60,100,5.88,overcast clouds,2022-02-26 05:28:02
510,San Vicente,AR,-26.6167,-54.1333,66.07,98,100,1.86,overcast clouds,2022-02-26 05:28:02
511,Puerto Suarez,BO,-18.95,-57.8,75.87,85,61,1.77,broken clouds,2022-02-26 05:28:02
512,Molo,KE,-0.2479,35.7374,55.13,75,52,4.56,broken clouds,2022-02-26 05:28:03
513,Vostok,RU,46.4856,135.8833,24.69,90,100,12.15,light snow,2022-02-26 05:22:09
514,Edd,ER,13.9297,41.6925,78.73,79,9,7.78,clear sky,2022-02-26 05:28:03
515,Ilhabela,BR,-23.7781,-45.3581,75.47,88,21,6.24,few clouds,2022-02-26 05:28:03
516,Klamath Falls,US,42.2249,-121.7817,33.87,48,0,0.0,clear sky,2022-02-26 05:24:02
517,Latung,PH,5.5,120.8833,81.43,69,99,1.14,overcast clouds,2022-02-26 05:28:04
518,Durango,MX,24.8333,-104.8333,54.01,26,6,7.96,clear sky,2022-02-26 05:26:11
519,Vila,PT,42.0304,-8.1588,36.48,72,45,5.06,scattered clouds,2022-02-26 05:28:04
520,Cuamba,MZ,-14.8031,36.5372,69.96,97,99,0.27,light rain,2022-02-26 05:22:16
521,Bulungu,CD,-4.55,18.6,68.77,95,83,2.51,broken clouds,2022-02-26 05:28:04
522,Brae,GB,60.3964,-1.353,46.31,84,100,27.76,overcast clouds,2022-02-26 05:19:44
523,Mujiayingzi,CN,42.1167,118.7833,33.15,21,0,18.01,clear sky,2022-02-26 05:28:05
524,Wencheng,CN,33.0559,113.7978,61.9,22,89,15.23,overcast clouds,2022-02-26 05:28:05
525,Grenfell,AU,-33.9,148.1667,79.36,46,85,13.09,overcast clouds,2022-02-26 05:28:06
526,Luanda,AO,-8.8368,13.2343,78.8,89,20,5.75,few clouds,2022-02-26 05:28:06
527,Big Spring,US,32.2504,-101.4787,32.54,58,0,8.99,clear sky,2022-02-26 05:26:51
528,Harer,ET,9.3094,42.1258,67.06,48,98,5.75,overcast clouds,2022-02-26 05:28:06
529,Buenos Aires,AR,-34.6132,-58.3772,75.94,74,0,8.05,clear sky,2022-02-26 05:25:12
530,Laishevo,RU,55.4046,49.5504,26.82,94,100,13.2,overcast clouds,2022-02-26 05:28:07
531,Hamilton,US,39.1834,-84.5333,31.12,77,100,5.75,overcast clouds,2022-02-26 05:20:26
532,Broken Hill,AU,-31.95,141.4333,91.47,21,45,11.81,scattered clouds,2022-02-26 05:21:09
533,Vernon,CA,50.2581,-119.2691,25.16,71,15,5.75,few clouds,2022-02-26 05:28:07
534,Srednekolymsk,RU,67.45,153.6833,-5.06,92,100,9.57,overcast clouds,2022-02-26 05:20:37
535,Japura,ID,-0.3167,102.35,91.0,55,89,1.92,overcast clouds,2022-02-26 05:28:08
536,Khoy,IR,38.5504,44.9535,43.07,61,100,3.85,overcast clouds,2022-02-26 05:28:08
537,Avera,US,33.194,-82.5271,57.07,50,0,7.56,clear sky,2022-02-26 05:21:17
538,Tiznit,MA,29.5833,-9.5,54.75,87,82,2.44,broken clouds,2022-02-26 05:28:09
539,Tual,ID,-5.6667,132.75,82.69,76,25,16.17,scattered clouds,2022-02-26 05:21:24
540,Berezovyy,RU,51.6667,135.7,18.75,90,100,4.07,light snow,2022-02-26 05:28:10
541,Pierre,US,44.3683,-100.351,13.12,80,0,9.22,clear sky,2022-02-26 05:28:10
542,Okha,RU,53.5739,142.9478,13.98,75,10,12.44,clear sky,2022-02-26 05:22:33
543,Gizo,SB,-8.103,156.8419,85.68,73,85,14.5,light rain,2022-02-26 05:28:10
544,Sao Joao Da Barra,BR,-21.6403,-41.0511,73.24,92,1,5.46,clear sky,2022-02-26 05:19:52
545,Kitimat,CA,54.0524,-128.6534,30.9,35,100,1.99,overcast clouds,2022-02-26 05:28:11
546,Edmundston,CA,47.3737,-68.3251,-0.31,76,47,1.14,scattered clouds,2022-02-26 05:26:49
547,Sinnamary,GF,5.3833,-52.95,77.02,89,100,13.49,overcast clouds,2022-02-26 05:22:15
548,Kibala,TD,9.1104,18.3463,73.35,18,0,0.0,clear sky,2022-02-26 05:28:11
549,Kahului,US,20.8947,-156.47,74.84,81,0,18.41,clear sky,2022-02-26 05:17:29
550,Posse,BR,-14.0931,-46.3694,67.15,73,4,4.52,clear sky,2022-02-26 05:24:18
551,The Valley,AI,18.217,-63.0578,77.09,71,1,15.05,clear sky,2022-02-26 05:28:12
552,Sobeslav,CZ,49.2599,14.7186,36.34,87,84,10.22,broken clouds,2022-02-26 05:28:12
553,Port Augusta,AU,-32.5,137.7667,97.7,25,43,15.73,scattered clouds,2022-02-26 05:28:13
554,Beloha,MG,-25.1667,45.05,76.91,80,100,2.64,overcast clouds,2022-02-26 05:28:13
555,Henties Bay,NA,-22.116,14.2845,62.85,84,90,4.68,overcast clouds,2022-02-26 05:24:59
556,Marzuq,YE,14.4,46.4667,74.66,15,69,3.8,broken clouds,2022-02-26 05:20:28
557,Los Llanos De Aridane,ES,28.6585,-17.9182,56.95,82,75,12.66,broken clouds,2022-02-26 05:21:50
558,Gamba,GA,-2.65,10.0,77.79,87,91,0.92,overcast clouds,2022-02-26 05:28:13
559,Chato,TZ,-2.6378,31.7669,64.63,93,80,3.94,broken clouds,2022-02-26 05:28:14
560,Taltal,CL,-25.4,-70.4833,66.51,79,5,0.02,clear sky,2022-02-26 05:28:14
561,Mao,ES,39.8885,4.2658,48.76,61,20,18.41,few clouds,2022-02-26 05:28:14
562,Chimbote,PE,-9.0853,-78.5783,72.16,82,97,4.76,overcast clouds,2022-02-26 05:28:15
563,Zirandaro,MX,18.45,-100.9833,78.04,48,1,3.15,clear sky,2022-02-26 05:28:15
564,Vao,NC,-22.6667,167.4833,79.36,77,94,17.31,overcast clouds,2022-02-26 05:20:39
565,Gillette,US,44.2911,-105.5022,8.69,71,0,5.99,clear sky,2022-02-26 05:28:15
566,Duncan,US,34.5023,-97.9578,29.35,56,0,6.91,clear sky,2022-02-26 05:28:16
567,Sangar,RU,63.9242,127.4739,-9.24,91,100,4.23,overcast clouds,2022-02-26 05:28:16
568,Hami,CN,42.8,93.45,40.98,24,83,3.62,broken clouds,2022-02-26 05:20:38
569,Lincoln,US,40.8,-96.667,18.9,58,0,4.61,clear sky,2022-02-26 05:24:58
570,Vlasotince,RS,42.9636,22.1231,40.05,85,100,2.21,light rain,2022-02-26 05:28:17
571,Nanchang,CN,28.6833,115.8833,56.73,58,89,3.51,overcast clouds,2022-02-26 05:28:17
572,Klaksvik,FO,62.2266,-6.589,47.32,92,100,44.05,overcast clouds,2022-02-26 05:20:55
573,Solnechnyy,RU,50.7214,136.6319,21.52,90,100,2.82,light snow,2022-02-26 05:28:17
574,Fare,PF,-16.7,-151.0167,81.99,74,44,16.73,scattered clouds,2022-02-26 05:28:18
575,Nchelenge,ZM,-9.3451,28.734,67.23,91,100,3.53,light rain,2022-02-26 05:28:18
576,Karratha,AU,-20.7377,116.8463,97.7,46,17,16.98,few clouds,2022-02-26 05:20:26
577,Bani,DO,18.2833,-70.3333,73.85,76,3,11.12,clear sky,2022-02-26 05:28:18
578,Wrexham,GB,53.0,-3.0,40.75,91,84,7.25,broken clouds,2022-02-26 05:28:18
579,Benguela,AO,-12.5763,13.4055,78.4,80,3,1.66,clear sky,2022-02-26 05:28:19
580,Xinzhou,CN,38.4092,112.7333,41.95,19,0,9.89,clear sky,2022-02-26 05:28:19
581,Vaitape,PF,-16.5167,-151.75,82.04,73,16,16.2,few clouds,2022-02-26 05:22:53
582,Katobu,ID,-4.9408,122.5276,87.24,56,88,8.19,overcast clouds,2022-02-26 05:21:35
583,Curup,ID,-3.4667,102.5333,83.52,49,96,4.47,overcast clouds,2022-02-26 05:28:20
584,Queanbeyan,AU,-35.35,149.2333,71.51,65,100,8.05,overcast clouds,2022-02-26 05:28:20
585,Cupar,GB,56.3188,-3.012,46.58,80,75,16.11,broken clouds,2022-02-26 05:26:21
586,Hermosillo,MX,29.0667,-110.9667,58.37,37,40,3.0,scattered clouds,2022-02-26 05:26:41
587,Sweetwater,US,25.7634,-80.3731,76.01,79,20,6.91,few clouds,2022-02-26 05:23:27
588,Ahuimanu,US,21.4447,-157.8378,74.91,77,75,16.11,broken clouds,2022-02-26 05:21:02
589,Busayra,JO,30.7376,35.6078,39.65,84,86,5.23,overcast clouds,2022-02-26 05:28:21
590,Kontagora,NG,10.3999,5.4695,69.71,16,11,5.99,few clouds,2022-02-26 05:28:21
591,Sandnessjoen,NO,66.0217,12.6316,31.98,50,96,7.23,overcast clouds,2022-02-26 05:28:21
592,Aksarayskiy,RU,46.7924,48.0119,48.15,58,100,17.74,overcast clouds,2022-02-26 05:28:22
593,Yishui,CN,35.7847,118.6281,51.06,22,4,19.17,clear sky,2022-02-26 05:28:22
594,Praia Da Vitoria,PT,38.7333,-27.0667,59.76,88,75,10.89,broken clouds,2022-02-26 05:28:22
595,Todos Santos,MX,23.45,-110.2167,69.01,89,94,3.58,overcast clouds,2022-02-26 05:28:23
596,Gidam,IN,18.9833,81.4,88.57,22,0,4.54,clear sky,2022-02-26 05:28:23
597,Davila,PH,18.4726,120.5763,84.18,69,1,19.55,clear sky,2022-02-26 05:28:23
598,Calabozo,VE,8.9242,-67.4293,78.04,60,13,8.12,few clouds,2022-02-26 05:28:24
599,Alvorada,BR,-12.48,-49.1247,73.13,91,19,3.98,few clouds,2022-02-26 05:28:24
600,Gao,ML,16.6362,1.637,68.14,10,0,11.36,clear sky,2022-02-26 05:28:24
601,Glendive,US,47.1053,-104.7125,18.18,73,0,10.36,clear sky,2022-02-26 05:28:24
602,Makakilo City,US,21.3469,-158.0858,73.72,68,0,16.11,clear sky,2022-02-26 05:28:25
603,Les Escoumins,CA,48.1111,-69.0236,4.35,97,51,5.61,broken clouds,2022-02-26 05:28:25
604,Sokol,RU,59.4617,40.1206,26.69,92,100,11.5,overcast clouds,2022-02-26 05:28:25
605,Elko,US,41.0002,-115.5012,17.62,65,0,5.01,clear sky,2022-02-26 05:28:26
606,Kostroma,RU,57.7708,40.9344,28.11,95,100,10.98,light snow,2022-02-26 05:28:26
607,Nueve De Julio,AR,-35.4444,-60.8831,66.7,45,0,7.74,clear sky,2022-02-26 05:28:26
608,Hovd,MN,48.0056,91.6419,12.07,75,61,3.8,broken clouds,2022-02-26 05:28:27
609,Liuhe,CN,42.2401,125.7172,29.21,64,97,10.36,overcast clouds,2022-02-26 05:28:27
610,Likhoslavl,RU,57.1275,35.464,31.69,84,99,9.37,overcast clouds,2022-02-26 05:28:27
611,Warri,NG,5.5167,5.75,76.71,93,100,2.57,overcast clouds,2022-02-26 05:22:39
612,Libertador General San Martin,AR,-23.8064,-64.7876,75.97,82,100,2.8,moderate rain,2022-02-26 05:28:28
613,Amapa,BR,1.0,-52.0,71.92,100,100,1.12,overcast clouds,2022-02-26 05:21:34
614,Nantucket,US,41.2835,-70.0995,30.31,88,100,21.85,overcast clouds,2022-02-26 05:20:09
615,Huicheng,CN,23.0385,116.2899,71.55,61,1,3.76,clear sky,2022-02-26 05:28:28
616,Dhidhdhoo,MV,6.8833,73.1,82.09,71,6,7.16,clear sky,2022-02-26 05:28:28
617,Abu Samrah,SY,35.3029,37.1841,47.28,91,60,4.56,broken clouds,2022-02-26 05:22:37
618,Chumikan,RU,54.7183,135.315,18.84,61,100,5.01,overcast clouds,2022-02-26 05:28:29
619,Saint Paul,US,44.9444,-93.0933,7.29,75,0,5.75,clear sky,2022-02-26 05:28:29
620,Ituiutaba,BR,-18.9689,-49.465,71.15,88,26,3.96,scattered clouds,2022-02-26 05:28:29
621,Moranbah,AU,-22.0016,148.0466,95.92,26,32,7.85,scattered clouds,2022-02-26 05:27:17
622,Micomeseng,GQ,2.1462,10.6164,69.17,99,46,0.38,scattered clouds,2022-02-26 05:28:30
623,Konya,TR,38.1667,32.5,31.48,85,84,3.24,broken clouds,2022-02-26 05:28:23
624,Basco,PH,20.4487,121.9702,72.0,73,96,16.37,overcast clouds,2022-02-26 05:28:30
625,Coruripe,BR,-10.1256,-36.1756,77.97,79,19,6.38,few clouds,2022-02-26 05:27:06
626,Petatlan,MX,17.5167,-101.2667,73.17,72,1,3.85,clear sky,2022-02-26 05:28:31
627,Rawson,AR,-43.3002,-65.1023,65.82,57,0,15.26,clear sky,2022-02-26 05:21:12
628,Marsa Matruh,EG,31.3525,27.2453,53.33,71,60,10.96,broken clouds,2022-02-26 05:28:31
629,Camacha,PT,33.0833,-16.3333,56.53,94,75,24.16,broken clouds,2022-02-26 05:21:28
630,Pedasi,PA,7.5333,-80.0333,74.07,81,61,17.96,broken clouds,2022-02-26 05:28:31
631,Roman,RO,46.9167,26.9167,41.61,84,100,8.81,overcast clouds,2022-02-26 05:28:32
632,Bagotville,AU,-28.9833,153.4167,77.02,95,100,12.66,light rain,2022-02-26 05:28:32
633,Poya,NC,-21.35,165.15,78.08,83,100,7.49,overcast clouds,2022-02-26 05:28:32
634,Harbour Breton,CA,47.4833,-55.7983,18.77,67,100,11.14,light snow,2022-02-26 05:28:33
635,Payakumbuh,ID,-0.2202,100.6308,84.87,63,81,0.74,broken clouds,2022-02-26 05:28:33
636,Edson,CA,53.5835,-116.4356,33.94,51,0,8.05,clear sky,2022-02-26 05:28:33
637,Abalak,RU,58.1286,68.5944,18.41,93,64,7.16,broken clouds,2022-02-26 05:28:34
638,Omboue,GA,-1.5746,9.2618,78.03,88,89,4.54,overcast clouds,2022-02-26 05:17:19
639,Kununurra,AU,-15.7667,128.7333,91.38,52,40,16.11,scattered clouds,2022-02-26 05:20:58
640,Dayong,CN,25.0209,118.2898,67.68,56,0,0.83,clear sky,2022-02-26 05:28:34
641,Tibati,CM,6.4667,12.6333,62.92,23,2,4.12,clear sky,2022-02-26 05:28:36
642,Balkanabat,TM,39.5108,54.3671,61.63,33,59,12.53,broken clouds,2022-02-26 05:21:04
643,Chiredzi,ZW,-21.05,31.6667,71.24,64,1,2.95,clear sky,2022-02-26 05:28:36
644,Finschhafen,PG,-6.6024,147.8681,86.2,73,92,13.31,overcast clouds,2022-02-26 05:28:36
645,Merrill,US,45.1805,-89.6835,8.96,81,0,3.44,clear sky,2022-02-26 05:28:37
646,Northam,GB,51.0333,-4.2167,44.1,91,89,10.16,overcast clouds,2022-02-26 05:21:23
647,Erzin,TR,36.9559,36.2,43.52,85,61,0.87,broken clouds,2022-02-26 05:25:07
648,Bowen,AU,-20.0167,148.2333,85.33,76,51,16.4,light rain,2022-02-26 05:19:32
649,Shorewood,US,41.52,-88.2017,21.81,85,0,6.91,clear sky,2022-02-26 05:24:41
650,Juba,SS,4.8517,31.5825,76.86,62,87,3.67,light rain,2022-02-26 05:28:37
651,Rotifunk,SL,8.2333,-12.6833,71.53,98,48,1.34,scattered clouds,2022-02-26 05:25:16
652,Egvekinot,RU,66.3167,-179.1667,19.92,87,100,19.19,overcast clouds,2022-02-26 05:21:34
653,El Viejo,NI,12.6633,-87.1672,78.75,57,17,5.82,few clouds,2022-02-26 05:28:38
654,Peleduy,RU,59.6289,112.7406,10.02,78,70,1.36,broken clouds,2022-02-26 05:28:38
655,Gari,RU,59.4307,62.3497,23.27,85,29,10.76,scattered clouds,2022-02-26 05:28:38
656,Morant Bay,JM,17.8815,-76.4093,74.82,84,15,11.27,few clouds,2022-02-26 05:28:39
657,Bambanglipuro,ID,-7.95,110.2833,84.43,66,98,5.08,overcast clouds,2022-02-26 05:28:39
658,Pechenga,RU,69.5259,31.1703,18.46,80,88,7.65,overcast clouds,2022-02-26 05:28:39
659,Tateyama,JP,34.9833,139.8667,55.67,55,0,10.56,clear sky,2022-02-26 05:28:40
660,Saint-Pierre,RE,-21.3393,55.4781,83.88,70,0,3.44,clear sky,2022-02-26 05:20:07
661,Comodoro Rivadavia,AR,-45.8667,-67.5,66.06,48,0,13.8,clear sky,2022-02-26 05:21:24
662,Provideniya,RU,64.3833,-173.3,27.86,95,100,17.74,snow,2022-02-26 05:20:10
663,Fulton,US,33.7668,-84.4499,48.6,74,0,10.36,clear sky,2022-02-26 05:28:40
664,Suntar,RU,62.1444,117.6319,-0.99,88,87,7.85,overcast clouds,2022-02-26 05:28:41
665,Dickinson,US,29.4608,-95.0513,45.03,90,100,12.66,mist,2022-02-26 05:21:21
666,Lodja,CD,-3.4833,23.4333,69.26,91,96,2.86,overcast clouds,2022-02-26 05:28:41
667,Wanning,CN,18.8003,110.3967,71.65,71,72,12.39,broken clouds,2022-02-26 05:28:41
668,Shima,CN,24.4478,117.8111,68.02,61,1,1.28,clear sky,2022-02-26 05:28:42
669,Jutai,BR,-5.1833,-68.9,72.45,100,100,1.97,overcast clouds,2022-02-26 05:20:07
670,Sovetskiy,RU,61.3614,63.5842,22.23,83,60,9.33,broken clouds,2022-02-26 05:28:42
671,Kendari,ID,-3.945,122.4989,86.25,64,97,2.86,overcast clouds,2022-02-26 05:28:43
672,Morales,CO,2.757,-76.6172,60.84,99,100,1.59,overcast clouds,2022-02-26 05:28:43
673,Anadyr,RU,64.75,177.4833,25.3,100,100,17.9,light snow,2022-02-26 05:28:43
674,Ambilobe,MG,-13.2,49.05,79.36,87,100,3.76,overcast clouds,2022-02-26 05:22:46
675,Temir,KZ,49.1414,57.13,26.71,91,89,12.66,overcast clouds,2022-02-26 05:28:44
676,Lexington,US,37.9887,-84.4777,31.12,75,100,3.44,overcast clouds,2022-02-26 05:25:19
677,Havelock,US,34.8791,-76.9013,62.58,78,94,10.25,overcast clouds,2022-02-26 05:28:44
678,Yatou,CN,37.15,122.3833,47.44,58,42,21.05,scattered clouds,2022-02-26 05:28:44
679,Zyryanka,RU,65.75,150.85,-3.69,93,100,10.78,overcast clouds,2022-02-26 05:28:45
680,La Barca,MX,20.2833,-102.5667,60.64,74,64,1.54,broken clouds,2022-02-26 05:28:45
681,Qui Nhon,VN,13.7667,109.2333,72.59,87,100,15.61,overcast clouds,2022-02-26 05:28:45
682,Alyangula,AU,-13.8483,136.4192,91.27,63,55,11.5,broken clouds,2022-02-26 05:28:46
683,Uberlandia,BR,-18.9186,-48.2772,72.61,78,0,4.61,clear sky,2022-02-26 05:24:31
684,Pinega,RU,64.7001,43.3936,32.11,90,99,11.59,overcast clouds,2022-02-26 05:28:46
685,Matagami,CA,49.7502,-77.6328,-0.29,65,0,10.36,clear sky,2022-02-26 05:28:47
686,Lamu,KE,-2.2717,40.902,82.62,81,6,8.77,clear sky,2022-02-26 05:28:47
687,Shemysheyka,RU,52.892,45.3928,30.42,98,100,9.73,overcast clouds,2022-02-26 05:28:47
688,San Quintin,MX,30.4833,-115.95,54.61,63,18,8.08,few clouds,2022-02-26 05:21:18
689,Jaguaruna,BR,-28.615,-49.0256,72.59,96,75,3.94,broken clouds,2022-02-26 05:28:48
690,Sao Felix Do Xingu,BR,-6.6447,-51.995,71.08,98,11,0.58,few clouds,2022-02-26 05:28:48
691,Wajima,JP,37.4,136.9,45.28,65,75,23.02,broken clouds,2022-02-26 05:28:48
692,Wanganui,NZ,-39.9333,175.05,72.73,68,0,7.0,clear sky,2022-02-26 05:28:48
693,High Rock,BS,26.6208,-78.2833,66.22,73,10,12.71,clear sky,2022-02-26 05:22:00
694,Tallahassee,US,30.4383,-84.2807,66.63,91,0,3.44,clear sky,2022-02-26 05:24:18
695,Neuquen,AR,-38.9516,-68.0591,67.53,44,9,10.74,clear sky,2022-02-26 05:23:52
696,Pangkalanbuun,ID,-2.6833,111.6167,93.51,46,100,2.26,overcast clouds,2022-02-26 05:28:49
697,Joensuu,FI,62.6012,29.7632,25.29,86,100,14.97,overcast clouds,2022-02-26 05:26:04
698,Solwezi,ZM,-12.1688,26.3894,59.67,97,59,2.73,broken clouds,2022-02-26 05:28:49
699,Ailigandi,PA,9.2333,-78.0167,77.92,81,98,13.22,overcast clouds,2022-02-26 05:28:50
700,Pichayevo,RU,53.2363,42.2032,32.65,98,100,5.73,overcast clouds,2022-02-26 05:28:50
701,Goba,ET,7.0167,39.9833,56.25,59,96,1.48,overcast clouds,2022-02-26 05:28:50
702,Walvis Bay,NA,-22.9575,14.5053,63.09,94,56,11.5,broken clouds,2022-02-26 05:21:48
703,Shimoda,JP,34.6667,138.95,57.11,51,30,15.28,scattered clouds,2022-02-26 05:19:48
