City_ID,City,Country,Lat,Lng,Max Temp,Humidity,Cloudiness,Wind Speed,Current Description,Date
0,San Jose,US,37.3394,-121.895,50.83,61,0,4.61,clear sky,2022-02-26 05:15:50
1,Barrow,US,71.2906,-156.7887,3.22,78,100,35.68,overcast clouds,2022-02-26 05:17:21
2,Palauig,PH,15.435,119.9045,83.62,66,12,9.48,few clouds,2022-02-26 05:19:28
3,Bonthe,SL,7.5264,-12.505,75.6,92,65,5.79,broken clouds,2022-02-26 05:19:28
4,Mataura,NZ,-46.1927,168.8643,55.47,43,4,7.7,clear sky,2022-02-26 05:19:29
5,Punta Arenas,CL,-53.15,-70.9167,46.51,81,40,13.8,scattered clouds,2022-02-26 05:19:29
6,Lorengau,PG,-2.0226,147.2712,80.78,81,100,9.82,overcast clouds,2022-02-26 05:19:29
7,Guerrero Negro,MX,27.9769,-114.0611,58.64,55,68,12.39,broken clouds,2022-02-26 05:19:30
8,Taraz,KZ,42.9,71.3667,48.61,53,58,2.24,broken clouds,2022-02-26 05:19:30
9,Port Elizabeth,ZA,-33.918,25.5701,70.11,83,20,9.22,few clouds,2022-02-26 05:19:30
10,Katsuura,JP,35.1333,140.3,55.51,49,1,11.41,clear sky,2022-02-26 05:19:31
11,Bandarbeyla,SO,9.4942,50.8122,77.92,69,83,8.55,broken clouds,2022-02-26 05:19:31
12,Rapid Valley,US,44.0625,-103.1463,23.85,69,0,4.61,clear sky,2022-02-26 05:16:59
13,Mapiripan,CO,2.8892,-72.1256,76.6,65,79,2.93,broken clouds,2022-02-26 05:16:08
14,Bowen,AU,-20.0167,148.2333,85.33,76,51,16.4,light rain,2022-02-26 05:19:32
15,Faya,SA,18.3851,42.4509,59.11,41,6,4.38,clear sky,2022-02-26 05:19:32
16,Yar-Sale,RU,66.8333,70.8333,11.44,92,56,9.51,broken clouds,2022-02-26 05:19:32
17,Rikitea,PF,-23.1203,-134.9692,79.97,71,6,9.8,clear sky,2022-02-26 05:19:33
18,Hobart,AU,-42.8794,147.3294,72.23,63,75,10.36,broken clouds,2022-02-26 05:19:33
19,Ostrovnoy,RU,68.0531,39.5131,27.97,96,100,31.09,snow,2022-02-26 05:19:33
20,Souillac,MU,-20.5167,57.5167,84.58,84,40,8.05,scattered clouds,2022-02-26 05:19:34
21,Codrington,AU,-38.2667,141.9667,75.4,57,92,17.27,overcast clouds,2022-02-26 05:19:34
22,Ushuaia,AR,-54.8,-68.3,46.06,81,20,6.91,few clouds,2022-02-26 05:19:34
23,Kruisfontein,ZA,-34.0033,24.7314,67.89,87,6,2.55,clear sky,2022-02-26 05:19:34
24,Tasiilaq,GL,65.6145,-37.6368,24.17,60,100,53.17,overcast clouds,2022-02-26 05:19:35
25,Upernavik,GL,72.7868,-56.1549,-12.89,85,89,5.59,overcast clouds,2022-02-26 05:19:35
26,Atuona,PF,-9.8,-139.0333,78.76,74,12,17.98,few clouds,2022-02-26 05:19:35
27,Airai,TL,-8.9266,125.4092,66.13,84,100,5.77,overcast clouds,2022-02-26 05:19:36
28,Bilibino,RU,68.0546,166.4372,4.46,97,99,2.13,overcast clouds,2022-02-26 05:19:36
29,Masallatah,LY,32.6167,14.0,53.49,53,37,8.9,scattered clouds,2022-02-26 05:19:36
30,Albany,US,42.6001,-73.9662,13.95,71,71,4.43,broken clouds,2022-02-26 05:17:47
31,Tiksi,RU,71.6872,128.8694,-2.25,95,100,7.94,overcast clouds,2022-02-26 05:19:37
32,Satka,RU,55.0425,59.04,23.9,78,19,2.13,few clouds,2022-02-26 05:19:37
33,Arraial Do Cabo,BR,-22.9661,-42.0278,74.91,87,9,8.28,clear sky,2022-02-26 05:19:37
34,Port Alfred,ZA,-33.5906,26.891,72.03,79,42,15.08,scattered clouds,2022-02-26 05:16:04
35,Broome,US,42.2506,-75.833,18.37,79,100,8.05,overcast clouds,2022-02-26 05:19:38
36,Saint-Joseph,RE,-21.3667,55.6167,82.78,82,95,8.23,overcast clouds,2022-02-26 05:19:38
37,Pevek,RU,69.7008,170.3133,-4.41,95,100,4.76,overcast clouds,2022-02-26 05:19:38
38,Port Macquarie,AU,-31.4333,152.9167,71.89,84,100,8.68,light rain,2022-02-26 05:19:39
39,Tucuman,AR,-26.8241,-65.2226,71.6,94,100,0.0,overcast clouds,2022-02-26 05:16:26
40,Rocha,UY,-34.4833,-54.3333,61.54,64,0,6.87,clear sky,2022-02-26 05:19:39
41,Tuktoyaktuk,CA,69.4541,-133.0374,-25.6,75,0,0.0,clear sky,2022-02-26 05:19:39
42,Nieuw Amsterdam,SR,5.8833,-55.0833,78.03,91,93,10.25,overcast clouds,2022-02-26 05:19:40
43,Mecca,SA,21.4267,39.8261,66.87,35,0,9.48,clear sky,2022-02-26 05:17:11
44,Hithadhoo,MV,-0.6,73.0833,83.3,72,18,10.25,few clouds,2022-02-26 05:19:40
45,Castro,BR,-24.7911,-50.0119,65.82,90,97,3.6,overcast clouds,2022-02-26 05:19:40
46,Beringovskiy,RU,63.05,179.3167,23.32,95,100,15.12,light snow,2022-02-26 05:19:41
47,Grindavik,IS,63.8424,-22.4338,36.07,80,75,23.02,broken clouds,2022-02-26 05:19:41
48,Kvarkeno,RU,52.0833,59.725,12.07,96,79,4.52,broken clouds,2022-02-26 05:19:41
49,Kavieng,PG,-2.5744,150.7967,83.25,75,93,6.29,moderate rain,2022-02-26 05:19:42
50,Jamestown,US,42.097,-79.2353,21.09,65,100,8.05,mist,2022-02-26 05:14:48
51,Lagoa,PT,39.05,-27.9833,59.77,90,91,24.38,overcast clouds,2022-02-26 05:19:42
52,Alofi,NU,-19.0595,-169.9187,80.49,83,96,6.91,overcast clouds,2022-02-26 05:19:42
53,Berlevag,NO,70.8578,29.0864,21.09,63,93,15.86,overcast clouds,2022-02-26 05:19:43
54,Bambous Virieux,MU,-20.3428,57.7575,84.45,84,40,8.05,light rain,2022-02-26 05:19:43
55,Hobyo,SO,5.3505,48.5268,79.77,73,43,11.74,scattered clouds,2022-02-26 05:19:43
56,Vaini,TO,-21.2,-175.2,84.36,84,75,10.36,broken clouds,2022-02-26 05:19:44
57,Hakkari,TR,37.5833,44.1667,29.98,100,100,2.3,fog,2022-02-26 05:19:44
58,Brae,GB,60.3964,-1.353,46.31,84,100,27.76,overcast clouds,2022-02-26 05:19:44
59,Hay River,CA,60.8156,-115.7999,-4.02,84,75,2.3,broken clouds,2022-02-26 05:19:45
60,Bluff,NZ,-46.6,168.3333,55.8,54,2,15.68,clear sky,2022-02-26 05:19:45
61,Enshi,CN,30.3,109.4833,61.03,50,93,0.85,overcast clouds,2022-02-26 05:19:45
62,Chokurdakh,RU,70.6333,147.9167,-5.17,98,100,4.81,overcast clouds,2022-02-26 05:19:46
63,Flinders,AU,-34.5833,150.8552,71.38,90,100,4.0,moderate rain,2022-02-26 05:19:46
64,Zomba,MW,-15.386,35.3188,67.24,95,100,0.98,overcast clouds,2022-02-26 05:19:46
65,Hilo,US,19.7297,-155.09,74.93,83,75,5.75,light rain,2022-02-26 05:19:47
66,New Norfolk,AU,-42.7826,147.0587,71.89,35,17,8.21,few clouds,2022-02-26 05:19:47
67,Te Anau,NZ,-45.4167,167.7167,60.76,41,32,7.02,scattered clouds,2022-02-26 05:19:47
68,Shimoda,JP,34.6667,138.95,57.11,51,30,15.28,scattered clouds,2022-02-26 05:19:48
69,Cape Town,ZA,-33.9258,18.4232,67.12,86,0,13.8,clear sky,2022-02-26 05:19:48
70,Tagusao,PH,9.1924,117.8141,83.59,66,87,11.86,overcast clouds,2022-02-26 05:19:48
71,Handan,CN,36.6006,114.4678,55.18,15,0,8.57,clear sky,2022-02-26 05:19:48
72,Naze,JP,28.3667,129.4833,59.92,59,29,7.38,scattered clouds,2022-02-26 05:19:49
73,Kaitangata,NZ,-46.2817,169.8464,55.92,52,6,13.11,clear sky,2022-02-26 05:19:49
74,Cururupu,BR,-1.8283,-44.8683,74.52,96,67,3.51,broken clouds,2022-02-26 05:19:49
75,Thompson,CA,55.7435,-97.8558,14.16,79,100,11.5,overcast clouds,2022-02-26 05:19:50
76,Sorland,NO,67.667,12.6934,32.95,48,89,10.63,overcast clouds,2022-02-26 05:19:50
77,Husavik,IS,66.0449,-17.3389,37.31,72,19,19.39,few clouds,2022-02-26 05:19:50
78,Kondoa,TZ,-4.9,35.7833,64.56,90,76,2.33,broken clouds,2022-02-26 05:19:51
79,Pitimbu,BR,-7.4706,-34.8086,79.39,75,86,7.87,overcast clouds,2022-02-26 05:19:51
80,Hermanus,ZA,-34.4187,19.2345,66.9,92,0,8.41,clear sky,2022-02-26 05:17:08
81,Samarai,PG,-10.6167,150.6667,80.35,82,100,19.24,moderate rain,2022-02-26 05:19:51
82,Zaraza,VE,9.3503,-65.3245,75.88,78,92,8.25,overcast clouds,2022-02-26 05:19:52
83,Guilin,CN,25.2819,110.2864,60.91,54,0,1.1,clear sky,2022-02-26 05:19:52
84,Sao Joao Da Barra,BR,-21.6403,-41.0511,73.24,92,1,5.46,clear sky,2022-02-26 05:19:52
85,Ngorongoro,TZ,-3.2397,35.4875,55.2,81,48,1.66,scattered clouds,2022-02-26 05:19:54
86,Lebu,CL,-37.6167,-73.65,59.4,95,42,8.95,scattered clouds,2022-02-26 05:16:13
87,Barabai,ID,-2.5833,115.3833,91.26,50,100,1.83,overcast clouds,2022-02-26 05:19:54
88,Xining,CN,36.6167,101.7667,30.97,31,0,3.31,clear sky,2022-02-26 05:19:54
89,Dikson,RU,73.5069,80.5464,2.14,92,100,6.51,overcast clouds,2022-02-26 05:19:55
90,Ilulissat,GL,69.2167,-51.1,1.42,85,75,6.91,light snow,2022-02-26 05:19:55
91,Ancud,CL,-41.8697,-73.8203,58.23,88,59,15.9,light rain,2022-02-26 05:16:51
92,Norman Wells,CA,65.282,-126.8329,-16.56,76,20,5.75,few clouds,2022-02-26 05:19:56
93,Narsaq,GL,60.9167,-46.05,12.42,96,100,2.24,light snow,2022-02-26 05:19:56
94,Kushmurun,KZ,52.4503,64.6311,20.84,94,100,2.39,overcast clouds,2022-02-26 05:19:56
95,Khorixas,NA,-20.3667,14.9667,72.16,51,14,1.03,few clouds,2022-02-26 05:19:56
96,Sao Filipe,CV,14.8961,-24.4956,67.44,78,10,16.49,clear sky,2022-02-26 05:19:57
97,Palmer,US,42.1584,-72.3287,20.75,68,100,9.22,overcast clouds,2022-02-26 05:19:57
98,Buenaventura,CO,3.8801,-77.0312,72.97,96,82,3.4,broken clouds,2022-02-26 05:19:57
99,Westport,US,41.1415,-73.3579,28.36,63,0,11.5,clear sky,2022-02-26 05:19:58
100,Fonte Boa,BR,-2.4959,-66.2662,71.11,99,99,2.42,overcast clouds,2022-02-26 05:19:58
101,Trincomalee,LK,8.5711,81.2335,81.39,76,17,11.99,few clouds,2022-02-26 05:19:58
102,Picsi,PE,-6.7178,-79.7697,75.79,70,100,1.23,light rain,2022-02-26 05:19:59
103,Changji,CN,44.0167,87.3167,27.39,68,100,2.24,smoke,2022-02-26 05:19:59
104,Champerico,GT,14.3,-91.9167,82.35,72,11,4.61,few clouds,2022-02-26 05:19:59
105,Amahai,ID,-3.3333,128.9167,87.28,60,76,4.36,broken clouds,2022-02-26 05:20:00
106,Andapa,MG,-14.65,49.65,79.0,76,100,0.74,overcast clouds,2022-02-26 05:20:00
107,Ribeira Grande,PT,38.5167,-28.7,61.16,89,94,18.48,overcast clouds,2022-02-26 05:20:01
108,Esperance,AU,-33.8667,121.9,94.84,54,60,8.95,broken clouds,2022-02-26 05:20:01
109,Severo-Kurilsk,RU,50.6789,156.125,27.59,77,94,23.71,light snow,2022-02-26 05:20:01
110,Haines Junction,CA,60.7522,-137.5108,33.75,64,100,8.05,overcast clouds,2022-02-26 05:20:02
111,Sobolevo,RU,54.4299,31.8996,22.06,95,29,5.39,scattered clouds,2022-02-26 05:20:02
112,East London,ZA,-33.0153,27.9116,68.94,88,75,3.44,broken clouds,2022-02-26 05:20:03
113,Qaanaaq,GL,77.484,-69.3632,0.46,55,10,9.69,clear sky,2022-02-26 05:20:03
114,Bredasdorp,ZA,-34.5322,20.0403,66.27,88,24,4.61,few clouds,2022-02-26 05:20:03
115,Mackay,AU,-21.15,149.2,87.04,78,38,12.15,light rain,2022-02-26 05:20:04
116,Zhangye,CN,38.9342,100.4517,47.16,12,6,7.31,clear sky,2022-02-26 05:20:04
117,Busselton,AU,-33.65,115.3333,80.71,46,23,15.12,few clouds,2022-02-26 05:20:04
118,Kapaa,US,22.0752,-159.319,76.98,76,20,13.8,few clouds,2022-02-26 05:20:05
119,Leningradskiy,RU,69.3833,178.4167,12.87,95,100,5.86,overcast clouds,2022-02-26 05:20:05
120,Lumphat,KH,13.4878,106.9816,93.49,34,64,9.69,broken clouds,2022-02-26 05:20:06
121,Shenzhen,CN,22.5455,114.0683,70.84,89,4,3.49,clear sky,2022-02-26 05:16:30
122,Parakai,NZ,-36.65,174.4333,78.22,57,58,8.7,broken clouds,2022-02-26 05:20:06
123,Champasak,LA,14.75,106.0,86.88,32,70,1.14,broken clouds,2022-02-26 05:20:06
124,Jutai,BR,-5.1833,-68.9,72.45,100,100,1.97,overcast clouds,2022-02-26 05:20:07
125,Butaritari,KI,3.0707,172.7902,82.04,77,21,17.31,few clouds,2022-02-26 05:20:07
126,Saint-Pierre,RE,-21.3393,55.4781,83.88,70,0,3.44,clear sky,2022-02-26 05:20:07
127,Kodiak,US,57.79,-152.4072,38.71,81,75,13.8,broken clouds,2022-02-26 05:20:07
128,Svetlogorsk,BY,52.6333,29.7333,30.65,85,11,5.35,few clouds,2022-02-26 05:20:08
129,Kapit,MY,2.0167,112.9333,93.79,47,79,1.92,broken clouds,2022-02-26 05:20:08
130,Laguna,US,38.421,-121.4238,50.34,55,0,0.0,clear sky,2022-02-26 05:17:18
131,Georgetown,MY,5.4112,100.3354,85.93,74,20,9.22,few clouds,2022-02-26 05:20:08
132,Ahipara,NZ,-35.1667,173.1667,68.79,72,33,6.89,scattered clouds,2022-02-26 05:20:09
133,Nantucket,US,41.2835,-70.0995,30.31,88,100,21.85,overcast clouds,2022-02-26 05:20:09
134,Maragogi,BR,-9.0122,-35.2225,78.33,76,99,5.23,overcast clouds,2022-02-26 05:20:09
135,Atambua,ID,-9.1061,124.8925,76.84,84,100,8.77,overcast clouds,2022-02-26 05:20:10
136,Provideniya,RU,64.3833,-173.3,27.86,95,100,17.74,snow,2022-02-26 05:20:10
137,Acapulco,MX,16.8634,-99.8901,78.62,83,40,2.3,scattered clouds,2022-02-26 05:17:47
138,Chuy,UY,-33.6971,-53.4616,65.44,91,0,5.77,moderate rain,2022-02-26 05:20:10
139,Kumluca,TR,36.3703,30.2869,51.69,62,7,5.53,clear sky,2022-02-26 05:20:11
140,Gornopravdinsk,RU,60.05,69.9,19.15,93,61,8.32,broken clouds,2022-02-26 05:20:11
141,Dingle,PH,10.9995,122.6711,85.55,57,100,18.79,overcast clouds,2022-02-26 05:20:11
142,Ambulu,ID,-8.345,113.6058,83.84,74,29,4.14,scattered clouds,2022-02-26 05:20:12
143,Vila Franca Do Campo,PT,37.7167,-25.4333,60.19,82,100,13.06,overcast clouds,2022-02-26 05:20:12
144,Tupik,RU,54.4253,119.9327,14.0,61,13,6.96,few clouds,2022-02-26 05:20:12
145,Clyde River,CA,70.4692,-68.5914,-1.97,78,100,29.93,snow,2022-02-26 05:20:13
146,Port-Gentil,GA,-0.7193,8.7815,81.16,81,100,8.52,overcast clouds,2022-02-26 05:20:13
147,Cardston,CA,49.2,-113.3019,21.49,45,1,8.05,clear sky,2022-02-26 05:20:13
148,Spencer,US,43.1414,-95.1444,9.59,80,0,3.44,clear sky,2022-02-26 05:16:40
149,Olafsvik,IS,64.8945,-23.7142,37.02,78,100,37.33,overcast clouds,2022-02-26 05:20:14
150,Bengkulu,ID,-3.8004,102.2655,84.34,62,96,7.16,overcast clouds,2022-02-26 05:20:14
151,Ponta Do Sol,PT,32.6667,-17.1,60.06,81,52,8.72,broken clouds,2022-02-26 05:20:15
152,Arzgir,RU,45.3728,44.2206,43.38,82,96,7.83,overcast clouds,2022-02-26 05:20:15
153,Kapoeta,SS,4.7717,33.5903,78.75,52,90,2.98,overcast clouds,2022-02-26 05:20:15
154,Abha,SA,18.2164,42.5053,58.82,36,0,5.75,clear sky,2022-02-26 05:20:16
155,Kyshtovka,RU,56.555,76.6271,16.45,96,98,8.39,overcast clouds,2022-02-26 05:20:16
156,Saint-Philippe,RE,-21.3585,55.7679,83.79,84,90,9.55,overcast clouds,2022-02-26 05:20:16
157,Orcopampa,PE,-15.2661,-72.3417,47.17,94,100,0.83,overcast clouds,2022-02-26 05:20:18
158,Imbituba,BR,-28.24,-48.6703,80.49,96,99,8.46,overcast clouds,2022-02-26 05:20:18
159,Fortuna,US,40.5982,-124.1573,41.94,92,0,10.36,clear sky,2022-02-26 05:20:18
160,Qaqortoq,GL,60.7167,-46.0333,12.7,94,100,17.83,light snow,2022-02-26 05:20:19
161,Bathsheba,BB,13.2167,-59.5167,75.81,88,75,10.36,broken clouds,2022-02-26 05:20:19
162,Arrifes,PT,37.7667,-25.7,58.23,88,40,12.66,scattered clouds,2022-02-26 05:20:19
163,Cabo San Lucas,MX,22.8909,-109.9124,69.51,73,78,1.99,broken clouds,2022-02-26 05:20:20
164,Honiara,SB,-9.4333,159.95,85.06,73,95,7.14,light rain,2022-02-26 05:20:20
165,Archidona,ES,37.0965,-4.3887,50.56,93,57,3.47,broken clouds,2022-02-26 05:20:20
166,Lompoc,US,34.6391,-120.4579,50.18,81,0,8.99,clear sky,2022-02-26 05:20:21
167,Constitucion,CL,-35.3333,-72.4167,57.25,84,0,3.98,clear sky,2022-02-26 05:20:21
168,Ekhabi,RU,53.5102,142.9671,14.54,74,7,12.35,clear sky,2022-02-26 05:20:22
169,Chicama,PE,-7.8447,-79.1469,74.43,75,83,4.74,broken clouds,2022-02-26 05:20:22
170,Inta,RU,66.0317,60.1659,27.27,85,100,21.39,overcast clouds,2022-02-26 05:16:30
171,Sioux Lookout,CA,50.1001,-91.917,3.58,60,20,13.8,few clouds,2022-02-26 05:20:22
172,Sitka,US,57.0531,-135.33,42.69,61,100,17.27,light rain,2022-02-26 05:20:23
173,Khatanga,RU,71.9667,102.5,-16.74,91,71,1.01,broken clouds,2022-02-26 05:20:23
174,Fairbanks,US,64.8378,-147.7164,35.56,65,100,10.36,overcast clouds,2022-02-26 05:19:19
175,Pacific Grove,US,36.6177,-121.9166,49.62,78,0,4.61,clear sky,2022-02-26 05:16:48
176,Khani,GE,41.9563,42.9566,38.77,98,94,0.81,overcast clouds,2022-02-26 05:20:24
177,Gold Coast,AU,-28.0,153.4333,74.25,96,75,14.97,light rain,2022-02-26 05:15:25
178,San Patricio,US,28.017,-97.5169,41.83,83,100,11.18,overcast clouds,2022-02-26 05:20:24
179,Adre,TD,13.4667,22.2,61.03,21,24,12.75,few clouds,2022-02-26 05:20:24
180,Petropavlivka,UA,48.4564,36.4367,36.03,93,100,9.8,light rain,2022-02-26 05:20:25
181,Vad,RU,55.5301,44.2114,30.4,98,100,7.99,light snow,2022-02-26 05:20:25
182,Longyearbyen,SJ,78.2186,15.6401,1.24,66,75,14.97,broken clouds,2022-02-26 05:20:25
183,Nikolskoye,RU,59.7035,30.7861,33.69,91,95,9.8,overcast clouds,2022-02-26 05:20:25
184,Hamilton,US,39.1834,-84.5333,31.12,77,100,5.75,overcast clouds,2022-02-26 05:20:26
185,San,ML,13.3034,-4.8956,77.22,13,10,10.25,clear sky,2022-02-26 05:19:40
186,Karratha,AU,-20.7377,116.8463,97.7,46,17,16.98,few clouds,2022-02-26 05:20:26
187,Kelvington,CA,52.1667,-103.5343,13.66,92,89,12.28,overcast clouds,2022-02-26 05:20:27
188,Fiumicino,IT,41.7675,12.2291,47.07,82,0,4.61,clear sky,2022-02-26 05:20:01
189,Hofn,IS,64.2539,-15.2082,40.41,75,97,34.83,overcast clouds,2022-02-26 05:20:27
190,Tarakan,ID,3.3,117.6333,85.5,66,75,5.75,light rain,2022-02-26 05:20:27
191,Marzuq,YE,14.4,46.4667,74.66,15,69,3.8,broken clouds,2022-02-26 05:20:28
192,Caravelas,BR,-17.7125,-39.2481,74.46,90,7,2.08,clear sky,2022-02-26 05:20:28
193,Carnarvon,AU,-24.8667,113.6333,86.07,62,26,19.57,scattered clouds,2022-02-26 05:20:28
194,Lokosovo,RU,61.1333,74.8167,11.62,95,88,7.74,overcast clouds,2022-02-26 05:20:29
195,Moerai,PF,-22.4333,-151.3333,81.21,69,97,9.84,overcast clouds,2022-02-26 05:20:29
196,Freeport,US,40.6576,-73.5832,28.58,61,0,13.8,clear sky,2022-02-26 05:16:59
197,Aklavik,CA,68.2191,-135.0107,-19.37,100,15,4.63,few clouds,2022-02-26 05:20:30
198,Batagay-Alyta,RU,67.8006,130.4114,0.16,93,100,11.97,light snow,2022-02-26 05:20:30
199,Simnas,LT,54.4,23.65,33.57,89,43,6.26,scattered clouds,2022-02-26 05:20:18
200,Coquimbo,CL,-29.9533,-71.3436,60.53,94,0,3.44,clear sky,2022-02-26 05:20:30
201,Rudbar,AF,30.15,62.6,62.87,17,9,0.65,clear sky,2022-02-26 05:20:31
202,Port Hedland,AU,-20.3167,118.5667,95.05,63,4,10.36,clear sky,2022-02-26 05:20:31
203,Deer Lake,CA,49.1667,-57.4316,6.66,78,75,3.44,broken clouds,2022-02-26 05:18:26
204,Arica,CL,-18.475,-70.3042,68.23,73,0,2.3,clear sky,2022-02-26 05:20:31
205,Inhambane,MZ,-23.865,35.3833,74.89,86,9,8.39,clear sky,2022-02-26 05:20:32
206,Nisko,PL,50.5199,22.1397,29.98,84,3,4.74,clear sky,2022-02-26 05:20:32
207,Korhogo,CI,9.45,-5.6333,73.45,34,46,3.09,scattered clouds,2022-02-26 05:20:32
208,Yining,CN,29.0361,114.5636,56.41,60,98,2.06,overcast clouds,2022-02-26 05:20:32
209,Vitim,RU,59.4511,112.5578,10.36,82,91,1.9,overcast clouds,2022-02-26 05:20:33
210,Lepe,ES,37.2548,-7.2043,56.1,82,97,4.65,overcast clouds,2022-02-26 05:20:33
211,Udachnyy,RU,66.4167,112.4,-1.55,84,16,4.43,few clouds,2022-02-26 05:20:33
212,Harlingen,US,26.1906,-97.6961,42.71,96,100,12.66,overcast clouds,2022-02-26 05:20:34
213,Baykit,RU,61.67,96.37,21.29,91,100,1.92,overcast clouds,2022-02-26 05:20:34
214,Blagoveshchenka,RU,52.8333,79.8667,22.6,90,72,6.96,broken clouds,2022-02-26 05:20:34
215,Belmonte,BR,-15.8631,-38.8828,75.7,82,16,5.03,few clouds,2022-02-26 05:20:35
216,Mar Del Plata,AR,-38.0023,-57.5575,66.87,71,0,3.44,clear sky,2022-02-26 05:20:35
217,Lahij,YE,13.1667,44.5833,70.81,72,64,2.66,broken clouds,2022-02-26 05:20:35
218,Marsassoum,SN,12.8275,-15.9806,66.29,55,3,6.62,clear sky,2022-02-26 05:20:36
219,Lisakovsk,KZ,52.5369,62.4936,10.65,99,97,2.28,overcast clouds,2022-02-26 05:20:36
220,Slave Lake,CA,55.2834,-114.769,17.58,79,0,0.0,clear sky,2022-02-26 05:20:36
221,Nome,US,64.5011,-165.4064,37.47,70,100,20.71,overcast clouds,2022-02-26 05:20:37
222,Srednekolymsk,RU,67.45,153.6833,-5.06,92,100,9.57,overcast clouds,2022-02-26 05:20:37
223,Santa Cruz,BO,-17.8,-63.1667,74.66,94,60,4.61,broken clouds,2022-02-26 05:20:37
224,Itamarandiba,BR,-17.8572,-42.8589,63.03,98,16,2.84,few clouds,2022-02-26 05:20:38
225,Hami,CN,42.8,93.45,40.98,24,83,3.62,broken clouds,2022-02-26 05:20:38
226,Huarmey,PE,-10.0681,-78.1522,72.32,85,100,7.31,overcast clouds,2022-02-26 05:20:38
227,Nonthaburi,TH,13.75,100.5,92.95,33,54,9.04,broken clouds,2022-02-26 05:20:39
228,Bugulma,RU,54.55,52.8,23.04,91,97,7.2,overcast clouds,2022-02-26 05:20:39
229,Vao,NC,-22.6667,167.4833,79.36,77,94,17.31,overcast clouds,2022-02-26 05:20:39
230,Marienburg,PL,54.0359,19.0266,37.11,91,96,4.65,overcast clouds,2022-02-26 05:20:40
231,San-Pedro,CI,4.7485,-6.6363,75.6,96,14,5.93,few clouds,2022-02-26 05:20:40
232,Kahului,US,20.8947,-156.47,74.84,81,0,18.41,clear sky,2022-02-26 05:17:29
233,Avarua,CK,-21.2078,-159.775,82.45,78,91,8.05,overcast clouds,2022-02-26 05:20:41
234,Pauini,BR,-7.7136,-66.9764,71.73,99,98,1.45,overcast clouds,2022-02-26 05:20:42
235,Ouegoa,NC,-20.35,164.4333,75.49,90,100,11.95,light rain,2022-02-26 05:20:42
236,Synya,RU,65.3718,58.0387,27.27,94,100,12.26,light snow,2022-02-26 05:20:42
237,Koungou,YT,-12.7336,45.2042,83.91,79,75,8.05,light rain,2022-02-26 05:20:43
238,Saskylakh,RU,71.9167,114.0833,-14.04,96,46,4.61,scattered clouds,2022-02-26 05:20:43
239,Gat,IL,31.61,34.7642,54.39,100,73,9.8,broken clouds,2022-02-26 05:20:43
240,Adrar,MR,20.5022,-10.0711,71.4,31,100,9.78,overcast clouds,2022-02-26 05:20:44
241,Namibe,AO,-15.1961,12.1522,76.41,81,91,6.02,overcast clouds,2022-02-26 05:20:44
242,Grants Pass,US,42.439,-123.3284,45.28,65,0,6.91,clear sky,2022-02-26 05:20:44
243,Trenggalek,ID,-8.05,111.7167,85.75,69,77,1.23,light rain,2022-02-26 05:20:44
244,Biloela,AU,-24.4167,150.5,90.32,38,58,6.82,broken clouds,2022-02-26 05:18:53
245,Camana,PE,-16.6228,-72.7111,72.28,89,100,6.71,overcast clouds,2022-02-26 05:20:45
246,Ukiah,US,39.1502,-123.2078,47.64,63,0,0.0,clear sky,2022-02-26 05:20:45
247,Mittagong,AU,-34.45,150.45,64.2,93,100,3.49,light rain,2022-02-26 05:20:46
248,Asau,RO,46.4333,26.4,38.95,79,98,3.78,overcast clouds,2022-02-26 05:20:46
249,Murgab,TM,37.4966,61.9714,51.67,62,0,9.22,clear sky,2022-02-26 05:20:46
250,Sahuaripa,MX,29.05,-109.2333,55.51,23,100,3.98,overcast clouds,2022-02-26 05:20:47
251,Taoudenni,ML,22.6783,-3.9836,77.0,13,87,11.1,overcast clouds,2022-02-26 05:20:47
252,Kangaatsiaq,GL,68.3065,-53.4641,-9.99,97,100,13.29,overcast clouds,2022-02-26 05:20:47
253,Omboue,GA,-1.5746,9.2618,78.03,88,89,4.54,overcast clouds,2022-02-26 05:17:19
254,Puerto Ayora,EC,-0.7393,-90.3518,74.88,88,84,4.18,broken clouds,2022-02-26 05:20:48
255,Shache,CN,38.4167,77.2406,44.26,29,88,0.45,overcast clouds,2022-02-26 05:20:48
256,Isangel,VU,-19.55,169.2667,82.51,83,100,0.0,overcast clouds,2022-02-26 05:20:48
257,Oranjemund,NA,-28.55,16.4333,63.77,93,96,10.78,overcast clouds,2022-02-26 05:20:49
258,Coahuayana,MX,18.7333,-103.6833,71.26,92,6,3.33,clear sky,2022-02-26 05:20:49
259,Barcelos,PT,41.5388,-8.6151,52.68,63,54,5.79,broken clouds,2022-02-26 05:20:49
260,Saint George,US,37.1041,-113.5841,37.63,41,0,5.99,clear sky,2022-02-26 05:17:20
261,Birao,CF,10.2849,22.7882,68.07,16,3,9.37,clear sky,2022-02-26 05:20:50
262,Talnakh,RU,69.4865,88.3972,7.21,95,100,6.15,light snow,2022-02-26 05:20:50
263,Brownsville,US,25.9018,-97.4975,42.75,91,100,13.8,overcast clouds,2022-02-26 05:16:28
264,Quelimane,MZ,-17.8786,36.8883,80.55,89,40,0.0,scattered clouds,2022-02-26 05:20:50
265,Half Moon Bay,US,37.4636,-122.4286,50.61,74,0,6.91,clear sky,2022-02-26 05:20:51
266,Road Town,VG,18.4167,-64.6167,75.29,72,0,16.46,clear sky,2022-02-26 05:20:51
267,Kieta,PG,-6.2167,155.6333,85.14,74,69,10.47,light rain,2022-02-26 05:20:52
268,Zhoucheng,CN,35.9122,116.3117,53.28,15,0,17.67,clear sky,2022-02-26 05:20:52
269,Cairns,AU,-16.9167,145.7667,98.55,32,18,8.05,few clouds,2022-02-26 05:20:52
270,Tuatapere,NZ,-46.1333,167.6833,55.81,48,10,7.05,clear sky,2022-02-26 05:20:53
271,Buraydah,SA,26.326,43.975,61.25,27,0,12.12,clear sky,2022-02-26 05:20:53
272,Port Lincoln,AU,-34.7333,135.8667,72.0,55,49,11.56,scattered clouds,2022-02-26 05:20:54
273,Bethel,US,41.3712,-73.414,26.04,58,0,10.36,clear sky,2022-02-26 05:20:54
274,Shalinskoye,RU,55.7228,93.7594,24.4,87,99,13.29,overcast clouds,2022-02-26 05:20:54
275,Rio Grande,BR,-32.035,-52.0986,73.51,95,1,4.85,clear sky,2022-02-26 05:20:54
276,Karasburg,NA,-28.0167,18.75,69.35,53,0,2.26,clear sky,2022-02-26 05:20:55
277,Klaksvik,FO,62.2266,-6.589,47.32,92,100,44.05,overcast clouds,2022-02-26 05:20:55
278,Songjianghe,CN,42.1859,127.479,27.66,60,100,11.18,overcast clouds,2022-02-26 05:20:56
279,Victoria,HK,22.2855,114.1577,70.95,72,28,10.0,scattered clouds,2022-02-26 05:20:56
280,Yellowknife,CA,62.456,-114.3525,-8.88,77,0,8.05,clear sky,2022-02-26 05:18:29
281,Nuuk,GL,64.1835,-51.7216,0.21,78,75,6.91,broken clouds,2022-02-26 05:20:56
282,Lakes Entrance,AU,-37.8811,147.981,69.57,84,100,10.71,overcast clouds,2022-02-26 05:20:57
283,Pampa,US,35.5362,-100.9599,20.35,68,0,9.22,clear sky,2022-02-26 05:20:57
284,Port Hardy,CA,50.6996,-127.4199,39.38,70,40,23.02,scattered clouds,2022-02-26 05:20:57
285,Saint-Augustin,CA,51.226,-58.6502,-23.26,98,26,5.39,scattered clouds,2022-02-26 05:20:58
286,Nyurba,RU,63.2842,118.3319,0.34,88,100,8.39,overcast clouds,2022-02-26 05:20:58
287,Kununurra,AU,-15.7667,128.7333,91.38,52,40,16.11,scattered clouds,2022-02-26 05:20:58
288,Nemuro,JP,43.3236,145.575,37.83,77,16,15.79,few clouds,2022-02-26 05:20:59
289,Gayny,RU,60.3071,54.3241,23.5,87,100,11.01,overcast clouds,2022-02-26 05:20:59
290,Kaduna,NG,10.5222,7.4383,63.5,19,54,9.91,broken clouds,2022-02-26 05:20:59
291,Alekseyevsk,RU,57.8406,108.3492,22.62,90,100,4.99,light snow,2022-02-26 05:21:00
292,Fort Nelson,CA,58.8053,-122.7002,26.19,74,75,4.61,broken clouds,2022-02-26 05:21:00
293,Panalingaan,PH,8.7842,117.4231,86.16,58,69,7.81,broken clouds,2022-02-26 05:21:00
294,Belyy Yar,RU,53.6039,91.3903,26.49,81,40,4.47,light shower snow,2022-02-26 05:21:01
295,Touros,BR,-5.1989,-35.4608,79.7,71,90,10.94,overcast clouds,2022-02-26 05:21:01
296,Bajil,YE,15.0584,43.2851,76.82,74,78,6.64,broken clouds,2022-02-26 05:21:01
297,Harrisonburg,US,38.4496,-78.8689,36.21,70,0,3.44,clear sky,2022-02-26 05:16:02
298,Byron Bay,AU,-28.65,153.6167,77.11,87,100,14.65,moderate rain,2022-02-26 05:21:02
299,Ahuimanu,US,21.4447,-157.8378,74.91,77,75,16.11,broken clouds,2022-02-26 05:21:02
300,Plettenberg Bay,ZA,-34.0527,23.3716,67.68,91,6,3.36,clear sky,2022-02-26 05:21:02
301,Winnemucca,US,40.973,-117.7357,24.85,58,0,9.22,clear sky,2022-02-26 05:18:45
302,Stornoway,GB,58.2093,-6.3865,46.92,88,100,37.98,light rain,2022-02-26 05:21:03
303,Aasiaat,GL,68.7098,-52.8699,-8.75,96,100,12.62,overcast clouds,2022-02-26 05:21:03
304,Oxford,GB,51.7522,-1.256,38.62,93,50,3.44,scattered clouds,2022-02-26 05:21:04
305,Balkanabat,TM,39.5108,54.3671,61.63,33,59,12.53,broken clouds,2022-02-26 05:21:04
306,Hasaki,JP,35.7333,140.8333,57.49,41,1,8.41,clear sky,2022-02-26 05:21:04
307,Hinton,CA,53.4001,-117.5857,15.84,86,8,8.75,clear sky,2022-02-26 05:18:31
308,Jumla,NP,29.2747,82.1838,46.27,43,63,5.26,broken clouds,2022-02-26 05:21:05
309,Riyadh,SA,24.6877,46.7219,73.45,16,0,2.3,clear sky,2022-02-26 05:21:05
310,Hambantota,LK,6.1241,81.1185,88.11,57,8,14.7,clear sky,2022-02-26 05:21:05
311,Arona,ES,28.0996,-16.681,59.79,65,20,6.91,few clouds,2022-02-26 05:21:06
312,Seoul,KR,37.5683,126.9778,51.19,66,75,19.57,broken clouds,2022-02-26 05:20:04
313,Luderitz,NA,-26.6481,15.1594,65.23,85,0,13.49,clear sky,2022-02-26 05:21:06
314,Talaya,RU,61.3833,152.75,-5.33,89,100,7.85,overcast clouds,2022-02-26 05:21:07
315,Koson,UZ,39.0375,65.585,52.12,46,1,2.44,clear sky,2022-02-26 05:21:07
316,Itapuranga,BR,-15.5622,-49.9486,69.76,86,48,3.6,scattered clouds,2022-02-26 05:21:07
317,Celestun,MX,20.8667,-90.4,75.24,78,37,8.7,scattered clouds,2022-02-26 05:21:08
318,Bonoua,CI,5.2741,-3.595,78.42,94,22,3.76,few clouds,2022-02-26 05:21:08
319,Rosario,AR,-32.9468,-60.6393,73.94,82,20,6.91,few clouds,2022-02-26 05:21:08
320,Broken Hill,AU,-31.95,141.4333,91.47,21,45,11.81,scattered clouds,2022-02-26 05:21:09
321,Mahebourg,MU,-20.4081,57.7,84.49,84,40,8.05,scattered clouds,2022-02-26 05:21:09
322,Ushtobe,KZ,45.2514,77.9838,33.01,75,86,3.2,overcast clouds,2022-02-26 05:21:09
323,Puerto Escondido,MX,15.85,-97.0667,78.64,75,0,3.8,clear sky,2022-02-26 05:21:10
324,Agadir,MA,30.4202,-9.5982,61.25,89,41,4.12,scattered clouds,2022-02-26 05:21:10
325,Ayan,RU,56.45,138.1667,12.06,58,14,14.18,few clouds,2022-02-26 05:21:10
326,Chadiza,ZM,-14.0678,32.4392,65.89,94,100,0.29,overcast clouds,2022-02-26 05:21:11
327,Tabas,IR,33.5959,56.9244,66.69,28,91,6.38,overcast clouds,2022-02-26 05:21:11
328,Novobiryusinskiy,RU,56.9578,97.7076,25.7,91,100,9.98,light snow,2022-02-26 05:21:12
329,Goderich,CA,43.7501,-81.7165,21.52,68,34,9.22,scattered clouds,2022-02-26 05:21:12
330,Rawson,AR,-43.3002,-65.1023,65.82,57,0,15.26,clear sky,2022-02-26 05:21:12
331,Nynashamn,SE,58.9034,17.9479,28.2,77,1,14.54,clear sky,2022-02-26 05:21:13
332,Leskovac,RS,42.9981,21.9461,40.59,80,100,3.27,overcast clouds,2022-02-26 05:21:13
333,Ulladulla,AU,-35.35,150.4667,68.9,92,100,2.84,light rain,2022-02-26 05:21:13
334,Geraldton,AU,-28.7667,114.6,81.01,61,13,17.27,few clouds,2022-02-26 05:21:14
335,Pandaria,IN,22.2333,81.4167,83.57,20,0,8.68,clear sky,2022-02-26 05:21:14
336,Zhigansk,RU,66.7697,123.3711,-0.08,88,100,15.52,overcast clouds,2022-02-26 05:21:14
337,Otjiwarongo,NA,-20.4637,16.6477,63.63,66,21,2.46,few clouds,2022-02-26 05:21:15
338,Fort Wellington,GY,6.4,-57.6,76.05,90,86,11.43,overcast clouds,2022-02-26 05:21:15
339,Mount Isa,AU,-20.7333,139.5,100.17,18,40,8.05,scattered clouds,2022-02-26 05:21:15
340,Nanortalik,GL,60.1432,-45.2371,9.37,88,100,39.24,light snow,2022-02-26 05:21:16
341,Saldanha,ZA,-33.0117,17.9442,60.85,94,3,9.64,clear sky,2022-02-26 05:21:16
342,Sisimiut,GL,66.9395,-53.6735,-12.01,91,100,5.57,overcast clouds,2022-02-26 05:21:16
343,Pisco,PE,-13.7,-76.2167,68.05,83,0,8.05,clear sky,2022-02-26 05:21:17
344,Malanje,AO,-9.5402,16.341,62.74,96,94,0.74,light rain,2022-02-26 05:21:17
345,Avera,US,33.194,-82.5271,57.07,50,0,7.56,clear sky,2022-02-26 05:21:17
346,Newtownards,GB,54.5924,-5.6909,48.15,76,100,19.57,overcast clouds,2022-02-26 05:21:17
347,San Quintin,MX,30.4833,-115.95,54.61,63,18,8.08,few clouds,2022-02-26 05:21:18
348,Vardo,NO,70.3705,31.1107,24.4,56,94,12.5,overcast clouds,2022-02-26 05:21:18
349,Alekseyevskaya,RU,50.2896,42.1845,30.81,100,100,7.67,overcast clouds,2022-02-26 05:21:18
350,Uttaradit,TH,17.6667,100.5,81.36,28,5,2.53,clear sky,2022-02-26 05:21:19
351,Kholtoson,RU,50.2981,103.3097,24.91,57,68,6.58,broken clouds,2022-02-26 05:21:20
352,Totness,SR,5.8833,-56.3167,76.24,91,96,12.39,overcast clouds,2022-02-26 05:21:20
353,Kavaratti,IN,10.5669,72.642,81.16,70,63,6.42,broken clouds,2022-02-26 05:19:17
354,Meulaboh,ID,4.1363,96.1285,78.21,82,100,2.24,overcast clouds,2022-02-26 05:21:21
355,Dickinson,US,29.4608,-95.0513,45.03,90,100,12.66,mist,2022-02-26 05:21:21
356,Nalut,LY,30.3333,10.85,51.78,29,68,6.85,broken clouds,2022-02-26 05:21:21
357,Coos Bay,US,43.3665,-124.2179,41.02,93,0,8.05,clear sky,2022-02-26 05:21:22
358,Vila Velha,BR,-20.3297,-40.2925,75.94,88,20,3.44,few clouds,2022-02-26 05:21:22
359,Russell,US,32.3502,-85.1999,53.2,78,0,8.05,clear sky,2022-02-26 05:21:22
360,Ous,RU,60.9058,61.5186,24.21,80,92,9.28,overcast clouds,2022-02-26 05:21:23
361,Traverse City,US,44.7631,-85.6206,25.0,78,100,4.61,overcast clouds,2022-02-26 05:21:21
362,High Level,CA,58.5169,-117.136,21.31,79,100,5.75,overcast clouds,2022-02-26 05:21:23
363,Northam,GB,51.0333,-4.2167,44.1,91,89,10.16,overcast clouds,2022-02-26 05:21:23
364,Tual,ID,-5.6667,132.75,82.69,76,25,16.17,scattered clouds,2022-02-26 05:21:24
365,Peno,RU,56.9262,32.7426,30.9,93,98,9.01,overcast clouds,2022-02-26 05:21:24
366,Comodoro Rivadavia,AR,-45.8667,-67.5,66.06,48,0,13.8,clear sky,2022-02-26 05:21:24
367,Mount Darwin,ZW,-16.7725,31.5838,66.61,93,90,1.95,overcast clouds,2022-02-26 05:21:25
368,Noumea,NC,-22.2763,166.4572,84.18,99,98,12.97,overcast clouds,2022-02-26 05:21:25
369,Borgo San Dalmazzo,IT,44.333,7.4858,41.49,44,35,2.89,scattered clouds,2022-02-26 05:21:25
370,Brookings,US,44.3114,-96.7984,10.69,84,0,11.5,clear sky,2022-02-26 05:21:13
371,Bousso,TD,10.4795,16.7117,67.78,16,2,6.55,clear sky,2022-02-26 05:21:26
372,Sibu,MY,2.3,111.8167,89.91,62,40,3.44,scattered clouds,2022-02-26 05:21:26
373,Ossora,RU,59.2353,163.0719,10.74,92,87,2.33,overcast clouds,2022-02-26 05:21:26
374,Koszalin,PL,54.1944,16.1722,39.88,94,27,4.34,scattered clouds,2022-02-26 05:21:27
375,Bonavista,CA,48.6499,-53.1147,20.12,61,99,11.23,overcast clouds,2022-02-26 05:21:27
376,Caluquembe,AO,-13.7833,14.6833,57.04,93,0,1.97,clear sky,2022-02-26 05:21:27
377,Sakakah,SA,29.9697,40.2064,49.57,60,0,5.21,clear sky,2022-02-26 05:21:28
378,Tautira,PF,-17.7333,-149.15,84.22,73,47,14.45,scattered clouds,2022-02-26 05:21:28
379,Camacha,PT,33.0833,-16.3333,56.53,94,75,24.16,broken clouds,2022-02-26 05:21:28
380,Benjamin Hill,MX,30.1667,-111.1,49.17,27,48,7.49,scattered clouds,2022-02-26 05:21:29
381,Walla Walla,US,46.0646,-118.343,27.59,79,0,5.75,clear sky,2022-02-26 05:21:29
382,Lasa,IT,46.6166,10.7002,32.61,93,58,6.58,broken clouds,2022-02-26 05:21:30
383,Wonthaggi,AU,-38.6044,145.5913,83.19,64,95,16.8,overcast clouds,2022-02-26 05:21:30
384,Esmeraldas,BR,-19.7625,-44.3139,72.46,94,18,3.62,few clouds,2022-02-26 05:21:30
385,Merauke,ID,-8.4667,140.3333,86.16,64,85,9.57,overcast clouds,2022-02-26 05:21:30
386,Portobelo,PA,9.55,-79.65,75.72,84,46,14.14,scattered clouds,2022-02-26 05:21:31
387,Alekseyevka,RU,50.6309,38.6903,33.06,98,100,4.68,overcast clouds,2022-02-26 05:21:32
388,Ponta Delgada,PT,37.7333,-25.6667,60.49,88,40,12.66,scattered clouds,2022-02-26 05:21:32
389,Kenai,US,60.5544,-151.2583,39.25,72,100,10.36,overcast clouds,2022-02-26 05:21:32
390,Pangody,RU,65.85,74.4859,7.0,95,71,10.13,broken clouds,2022-02-26 05:21:33
391,Garh Maharaja,PK,30.8339,71.9053,64.38,59,3,11.39,clear sky,2022-02-26 05:21:33
392,Kloulklubed,PW,7.0419,134.2556,82.9,77,68,20.96,broken clouds,2022-02-26 05:21:33
393,Amapa,BR,1.0,-52.0,71.92,100,100,1.12,overcast clouds,2022-02-26 05:21:34
394,Yamada,JP,39.4667,141.95,45.9,66,56,14.79,broken clouds,2022-02-26 05:21:34
395,Egvekinot,RU,66.3167,-179.1667,19.92,87,100,19.19,overcast clouds,2022-02-26 05:21:34
396,Marsh Harbour,BS,26.5412,-77.0636,72.66,71,11,12.86,few clouds,2022-02-26 05:21:35
397,Katobu,ID,-4.9408,122.5276,87.24,56,88,8.19,overcast clouds,2022-02-26 05:21:35
398,Lowestoft,GB,52.4752,1.7516,38.32,92,2,8.32,clear sky,2022-02-26 05:21:35
399,Hluti,SZ,-27.2167,31.6167,66.7,76,9,0.67,clear sky,2022-02-26 05:21:36
400,Chunhuhub,MX,19.55,-88.6833,68.23,99,10,2.64,clear sky,2022-02-26 05:21:36
401,Elizabeth City,US,36.2946,-76.2511,48.25,86,0,14.97,clear sky,2022-02-26 05:21:36
402,Taga,RO,46.95,24.05,36.32,73,100,3.02,overcast clouds,2022-02-26 05:21:37
403,Hienghene,NC,-20.6833,164.9333,73.98,90,100,6.89,light rain,2022-02-26 05:21:37
404,Hachinohe,JP,40.5,141.5,44.82,61,75,25.32,broken clouds,2022-02-26 05:21:37
405,Malindi,KE,-3.2175,40.1191,78.96,89,75,0.0,broken clouds,2022-02-26 05:21:38
406,Salalah,OM,17.0151,54.0924,72.57,60,5,1.81,clear sky,2022-02-26 05:21:38
407,Goure,NE,13.9835,10.2704,63.01,20,0,9.8,clear sky,2022-02-26 05:21:38
408,Floro,NO,61.5996,5.0328,39.16,60,100,21.85,light rain,2022-02-26 05:21:39
409,Melipilla,CL,-33.7,-71.2167,75.54,77,0,0.27,clear sky,2022-02-26 05:20:01
410,Presidencia Roque Saenz Pena,AR,-26.7852,-60.4388,78.98,72,50,10.96,scattered clouds,2022-02-26 05:21:39
411,Valreas,FR,44.3837,4.9908,38.82,82,1,9.28,clear sky,2022-02-26 05:21:40
412,Guantanamo,CU,20.1444,-75.2092,75.27,88,26,4.9,scattered clouds,2022-02-26 05:21:40
413,Labuhan,ID,-6.8844,112.2051,84.54,68,55,7.23,moderate rain,2022-02-26 05:21:41
414,Fillmore,US,43.6666,-92.1002,7.52,85,0,8.05,clear sky,2022-02-26 05:21:41
415,Alto Lucero,MX,19.6167,-96.7167,62.24,86,67,2.71,broken clouds,2022-02-26 05:21:42
416,Joigny,FR,47.9829,3.401,28.81,91,2,4.7,clear sky,2022-02-26 05:21:42
417,Conselheiro Lafaiete,BR,-20.6603,-43.7861,61.43,98,5,2.57,clear sky,2022-02-26 05:21:42
418,Lockhart,US,28.6194,-81.4426,70.09,74,9,4.05,clear sky,2022-02-26 05:21:43
419,Caceres,ES,39.522,-6.3748,48.79,78,100,8.95,overcast clouds,2022-02-26 05:21:43
420,Sylvania,US,41.7189,-83.713,24.82,76,100,5.75,overcast clouds,2022-02-26 05:21:07
421,Lethem,GY,3.3803,-59.7968,76.05,84,65,9.44,broken clouds,2022-02-26 05:21:45
422,Litovko,RU,49.2361,135.1742,25.54,83,100,11.23,overcast clouds,2022-02-26 05:21:45
423,Ust-Ishim,RU,57.6935,71.1665,18.12,92,77,6.89,broken clouds,2022-02-26 05:21:45
424,Naryan-Mar,RU,67.6713,53.087,27.72,96,100,12.01,light snow,2022-02-26 05:21:46
425,Qasigiannguit,GL,68.8193,-51.1922,1.65,97,100,6.96,overcast clouds,2022-02-26 05:21:46
426,Schoten,BE,51.2525,4.5027,35.89,92,100,2.3,fog,2022-02-26 05:21:46
427,Vieste,IT,41.8825,16.175,50.4,67,4,4.9,clear sky,2022-02-26 05:21:47
428,Cap Malheureux,MU,-19.9842,57.6142,84.69,78,15,5.99,few clouds,2022-02-26 05:21:47
429,Buala,SB,-8.145,159.5921,84.6,76,92,9.57,light rain,2022-02-26 05:21:47
430,Walvis Bay,NA,-22.9575,14.5053,63.09,94,56,11.5,broken clouds,2022-02-26 05:21:48
431,San Rafael,AR,-34.6177,-68.3301,70.83,66,0,6.6,clear sky,2022-02-26 05:16:58
432,Aleksandrov Gay,RU,50.147,48.5704,32.36,92,100,13.94,overcast clouds,2022-02-26 05:21:48
433,Kidal,ML,18.4411,1.4078,69.48,11,0,11.52,clear sky,2022-02-26 05:21:48
434,De-Kastri,RU,51.4667,140.7833,24.51,83,100,4.63,overcast clouds,2022-02-26 05:21:49
435,Meadow Lake,US,34.8014,-106.5436,40.12,33,0,1.66,clear sky,2022-02-26 05:21:49
436,Agirish,RU,61.9247,63.0231,22.95,85,93,9.33,overcast clouds,2022-02-26 05:21:49
437,Puyo,EC,-1.4667,-77.9833,65.8,99,100,1.97,moderate rain,2022-02-26 05:21:50
438,Alice Springs,AU,-23.7,133.8833,96.22,43,40,12.66,scattered clouds,2022-02-26 05:21:50
439,Los Llanos De Aridane,ES,28.6585,-17.9182,56.95,82,75,12.66,broken clouds,2022-02-26 05:21:50
440,Aykhal,RU,66.0,111.5,-3.59,78,3,5.55,clear sky,2022-02-26 05:21:51
441,Deputatskiy,RU,69.3,139.9,-9.35,96,100,4.12,overcast clouds,2022-02-26 05:21:51
442,Zainsk,RU,55.3195,52.0694,23.99,86,98,9.4,overcast clouds,2022-02-26 05:17:44
443,Tayoltita,MX,24.0833,-105.9333,60.12,42,9,5.61,clear sky,2022-02-26 05:21:51
444,Sorong,ID,-0.8833,131.25,82.92,68,65,4.92,broken clouds,2022-02-26 05:21:52
445,Billings,US,45.7833,-108.5007,19.17,59,0,16.11,clear sky,2022-02-26 05:19:19
446,San Jeronimo,PE,-11.9472,-75.2829,49.32,91,100,1.63,overcast clouds,2022-02-26 05:21:52
447,Terrace,CA,54.5163,-128.6035,30.42,93,100,2.3,overcast clouds,2022-02-26 05:21:52
448,Ituango,CO,7.1712,-75.764,62.6,96,90,0.65,overcast clouds,2022-02-26 05:21:53
449,Nagapattinam,IN,10.7667,79.8333,80.91,67,97,9.73,overcast clouds,2022-02-26 05:21:53
450,Cherskiy,RU,68.75,161.3,-6.79,98,99,7.2,overcast clouds,2022-02-26 05:21:53
451,Lola,GN,7.8,-8.5333,69.4,97,47,2.86,scattered clouds,2022-02-26 05:21:53
452,Namatanai,PG,-3.6667,152.4333,83.46,76,96,6.82,light rain,2022-02-26 05:21:54
453,Faanui,PF,-16.4833,-151.75,82.02,73,15,16.28,few clouds,2022-02-26 05:21:54
454,Eureka,US,40.8021,-124.1637,42.21,85,39,5.19,scattered clouds,2022-02-26 05:20:37
455,Lazarev,RU,52.225,141.5131,21.72,71,39,3.56,scattered clouds,2022-02-26 05:21:55
456,Petropavlovsk-Kamchatskiy,RU,53.0452,158.6483,27.19,50,75,4.47,broken clouds,2022-02-26 05:21:55
457,Torrington,US,41.8007,-73.1212,22.15,74,20,1.99,few clouds,2022-02-26 05:21:56
458,Caucaia,BR,-3.7361,-38.6531,82.04,76,40,8.05,scattered clouds,2022-02-26 05:18:11
459,Sembakung,ID,3.8167,117.25,85.93,49,81,3.69,heavy intensity rain,2022-02-26 05:18:19
460,Muros,ES,42.7762,-9.0603,47.98,68,0,6.69,clear sky,2022-02-26 05:21:57
461,Auki,SB,-8.7676,160.7034,83.57,74,99,8.46,overcast clouds,2022-02-26 05:21:57
462,Vallenar,CL,-28.5708,-70.7581,67.73,58,0,2.42,clear sky,2022-02-26 05:21:57
463,Yaan,NG,7.3833,8.5667,73.76,17,12,2.82,few clouds,2022-02-26 05:21:58
464,Sakhon Nakhon,TH,17.1612,104.1472,80.69,47,0,4.61,clear sky,2022-02-26 05:21:58
465,La Macarena,CO,2.1837,-73.7849,75.78,68,71,1.52,broken clouds,2022-02-26 05:21:58
466,Rosetta,EG,31.4044,30.4164,57.94,59,74,14.83,broken clouds,2022-02-26 05:21:59
467,Homer,US,59.6425,-151.5483,41.81,70,100,15.99,overcast clouds,2022-02-26 05:21:59
468,Vila Do Maio,CV,15.1333,-23.2167,68.79,77,84,22.17,broken clouds,2022-02-26 05:21:59
469,Jeannette,US,40.3281,-79.6153,26.49,75,100,9.22,overcast clouds,2022-02-26 05:22:00
470,Madaoua,NE,14.073,5.96,59.7,16,0,11.07,clear sky,2022-02-26 05:22:00
471,High Rock,BS,26.6208,-78.2833,66.22,73,10,12.71,clear sky,2022-02-26 05:22:00
472,Kijang,KR,35.2442,129.2139,56.93,40,52,17.54,broken clouds,2022-02-26 05:22:01
473,Masvingo,ZW,-20.0637,30.8277,66.94,59,0,3.09,clear sky,2022-02-26 05:22:01
474,Chifeng,CN,42.2683,118.9636,34.43,22,0,18.97,clear sky,2022-02-26 05:22:01
475,Nador,MA,35.174,-2.9287,59.25,88,100,10.36,overcast clouds,2022-02-26 05:22:02
476,Altay,CN,47.8667,88.1167,24.44,64,74,1.97,broken clouds,2022-02-26 05:22:02
477,Lingao,CN,19.9103,109.6859,69.94,69,76,11.74,broken clouds,2022-02-26 05:22:02
478,Winneba,GH,5.3511,-0.6231,81.07,94,15,5.97,few clouds,2022-02-26 05:22:03
479,Kutum,SD,14.2,24.6667,54.59,27,13,5.97,few clouds,2022-02-26 05:22:03
480,Port-Cartier,CA,50.0334,-66.8654,-16.38,96,9,6.49,clear sky,2022-02-26 05:17:16
481,Carson City,US,39.1638,-119.7674,32.83,55,0,3.44,clear sky,2022-02-26 05:22:04
482,Fayaoue,NC,-20.65,166.5333,77.02,81,100,7.61,light rain,2022-02-26 05:22:04
483,Lubango,AO,-14.9172,13.4925,59.95,80,36,3.27,scattered clouds,2022-02-26 05:22:05
484,Tabuk,PH,17.4189,121.4443,74.98,83,99,5.73,overcast clouds,2022-02-26 05:22:05
485,Atasu,KZ,48.6814,71.6433,27.48,94,99,8.28,overcast clouds,2022-02-26 05:22:05
486,Mandera,KE,3.9366,41.867,81.66,56,9,10.13,clear sky,2022-02-26 05:22:06
487,Kudahuvadhoo,MV,2.6708,72.8944,83.19,71,16,13.2,few clouds,2022-02-26 05:22:06
488,Bandar-E Anzali,IR,37.4727,49.4622,51.91,82,8,4.68,clear sky,2022-02-26 05:22:06
489,Punta De Piedra,VE,7.6176,-71.4916,75.94,62,34,3.36,scattered clouds,2022-02-26 05:22:06
490,North Platte,US,41.1239,-100.7654,19.38,72,0,4.0,clear sky,2022-02-26 05:18:08
491,Ayia Galini,GR,35.1,24.6833,50.95,65,0,1.74,clear sky,2022-02-26 05:22:07
492,Verkhoyansk,RU,67.5447,133.385,-1.23,89,100,7.09,overcast clouds,2022-02-26 05:22:08
493,Locri,IT,38.2414,16.2623,52.16,78,51,8.08,broken clouds,2022-02-26 05:22:08
494,Mattru,SL,7.6244,-11.8332,73.96,94,64,2.77,broken clouds,2022-02-26 05:22:09
495,Manakara,MG,-22.1333,48.0167,74.84,97,100,4.72,light rain,2022-02-26 05:22:09
496,Vostok,RU,46.4856,135.8833,24.69,90,100,12.15,light snow,2022-02-26 05:22:09
497,Salciile,RO,44.8167,26.4833,41.13,75,80,13.62,broken clouds,2022-02-26 05:22:10
498,Camocim,BR,-2.9022,-40.8411,76.19,88,69,8.7,broken clouds,2022-02-26 05:22:10
499,Seminole,US,28.7086,-81.2081,71.96,91,0,6.91,clear sky,2022-02-26 05:22:10
500,Korla,CN,41.7597,86.1469,40.32,36,100,3.22,overcast clouds,2022-02-26 05:22:11
501,Itoman,JP,26.1247,127.6694,70.57,57,75,16.11,broken clouds,2022-02-26 05:22:11
502,Shingu,JP,33.7333,135.9833,54.59,33,0,9.24,clear sky,2022-02-26 05:18:58
503,Cayenne,GF,4.9333,-52.3333,80.1,84,100,6.91,overcast clouds,2022-02-26 05:22:11
504,Tsiroanomandidy,MG,-18.7667,46.0333,70.45,92,81,1.19,broken clouds,2022-02-26 05:22:12
505,Bichura,RU,50.5881,107.6022,25.03,78,88,6.44,overcast clouds,2022-02-26 05:22:12
506,Pervomaysk,UA,48.0443,30.8507,35.78,92,99,11.68,overcast clouds,2022-02-26 05:22:12
507,Itaquyry,PY,-24.9333,-55.2167,73.62,91,100,3.27,overcast clouds,2022-02-26 05:22:13
508,Ust-Uda,RU,54.1742,103.0304,25.88,81,100,8.57,overcast clouds,2022-02-26 05:22:13
509,Siniscola,IT,40.5719,9.6922,49.55,77,78,9.62,light rain,2022-02-26 05:22:13
510,Huilong,CN,31.8111,121.655,64.04,51,2,10.45,clear sky,2022-02-26 05:22:14
511,Chapais,CA,49.7834,-74.8492,-11.42,100,97,5.03,overcast clouds,2022-02-26 05:22:14
512,Sinnamary,GF,5.3833,-52.95,77.02,89,100,13.49,overcast clouds,2022-02-26 05:22:15
513,Sambava,MG,-14.2667,50.1667,80.02,77,97,3.58,overcast clouds,2022-02-26 05:22:15
514,Noshiro,JP,40.2039,140.0242,45.54,72,99,21.34,overcast clouds,2022-02-26 05:22:15
515,Cuamba,MZ,-14.8031,36.5372,69.96,97,99,0.27,light rain,2022-02-26 05:22:16
516,Aitape,PG,-3.1374,142.3475,82.2,81,98,11.21,overcast clouds,2022-02-26 05:22:16
517,Kincardine,GB,56.0667,-3.7167,47.39,83,100,14.45,overcast clouds,2022-02-26 05:22:16
518,Cockburn Town,TC,21.4612,-71.1419,77.23,76,1,17.45,clear sky,2022-02-26 05:22:17
519,Puerto Baquerizo Moreno,EC,-0.9,-89.6,76.23,85,68,6.17,broken clouds,2022-02-26 05:22:17
520,Ivankiv,UA,50.9386,29.8943,34.56,86,81,7.14,broken clouds,2022-02-26 05:22:17
521,Maceio,BR,-9.6658,-35.7353,76.44,88,0,3.44,clear sky,2022-02-26 05:22:17
522,Torbat-E Jam,IR,35.244,60.6225,49.89,46,61,5.53,broken clouds,2022-02-26 05:22:18
523,Cambui,BR,-22.6122,-46.0575,69.42,95,39,2.13,scattered clouds,2022-02-26 05:22:18
524,Fairview,US,40.8126,-73.999,27.61,57,0,21.85,clear sky,2022-02-26 05:22:18
525,Nara,JP,34.6851,135.8049,55.96,34,3,8.59,clear sky,2022-02-26 05:22:19
526,Senneterre,CA,48.3835,-77.2328,-1.98,99,56,5.77,broken clouds,2022-02-26 05:22:19
527,Aswan,EG,24.0934,32.907,54.1,50,0,8.37,clear sky,2022-02-26 05:22:20
528,Corinto,GR,37.9407,22.9573,48.69,77,3,2.71,clear sky,2022-02-26 05:22:20
529,Kuito,AO,-12.3833,16.9333,56.82,95,72,0.51,broken clouds,2022-02-26 05:22:21
530,Iqaluit,CA,63.7506,-68.5145,-18.67,69,100,13.8,overcast clouds,2022-02-26 05:22:21
531,Grand Gaube,MU,-20.0064,57.6608,84.6,78,14,5.99,few clouds,2022-02-26 05:22:21
532,Jining,CN,35.405,116.5814,54.5,18,1,18.81,clear sky,2022-02-26 05:22:22
533,El Retorno,CO,2.3302,-72.6276,74.8,74,92,2.08,overcast clouds,2022-02-26 05:22:22
534,Sola,VU,-13.8833,167.55,82.9,74,100,11.23,moderate rain,2022-02-26 05:22:22
535,Coihaique,CL,-45.5752,-72.0662,49.95,93,100,2.3,light rain,2022-02-26 05:22:23
536,Mikkeli,FI,61.6886,27.2723,25.14,86,75,9.22,broken clouds,2022-02-26 05:22:23
537,Tura,IN,25.5198,90.2201,77.95,44,2,3.18,clear sky,2022-02-26 05:22:23
538,Linxia,CN,35.6003,103.2064,35.35,47,0,2.95,clear sky,2022-02-26 05:22:24
539,Griffith,US,41.5284,-87.4237,23.25,83,0,4.61,clear sky,2022-02-26 05:22:24
540,Zhezkazgan,KZ,47.8043,67.7144,28.38,93,100,20.13,light snow,2022-02-26 05:22:24
541,Hidalgotitlan,MX,17.7833,-94.6333,69.24,93,0,5.57,clear sky,2022-02-26 05:22:24
542,Sesheke,ZM,-17.4759,24.2968,65.35,78,4,4.63,clear sky,2022-02-26 05:22:25
543,Del Rio,US,29.3627,-100.8968,43.43,59,100,13.8,overcast clouds,2022-02-26 05:20:18
544,San Cristobal,VE,7.7669,-72.225,68.18,95,80,2.17,broken clouds,2022-02-26 05:22:25
545,Zhongshu,CN,24.5167,103.7667,63.32,49,11,9.15,few clouds,2022-02-26 05:22:25
546,Agadez,NE,19.75,10.25,57.56,19,0,3.96,clear sky,2022-02-26 05:22:26
547,Grafton,US,42.207,-71.6856,20.35,86,75,10.36,broken clouds,2022-02-26 05:22:26
548,Rodos,GR,36.4408,28.2225,53.26,59,20,10.36,few clouds,2022-02-26 05:22:26
549,Murray Bridge,AU,-35.1167,139.2667,90.82,35,47,12.91,scattered clouds,2022-02-26 05:22:27
550,Omsukchan,RU,62.5333,155.8,-6.18,92,100,6.6,overcast clouds,2022-02-26 05:22:27
551,Torbay,CA,47.6666,-52.7314,21.27,68,100,0.0,overcast clouds,2022-02-26 05:18:30
552,Pizarro,CO,4.9533,-77.366,75.36,93,98,7.4,light rain,2022-02-26 05:22:28
553,Sampang,ID,-7.1872,113.2394,89.55,73,52,6.11,light rain,2022-02-26 05:22:28
554,Teguise,ES,29.0605,-13.564,55.62,88,0,8.05,clear sky,2022-02-26 05:22:29
555,Kalmunai,LK,7.4167,81.8167,81.7,77,49,10.07,scattered clouds,2022-02-26 05:22:29
556,Ofunato,JP,39.0717,141.7167,43.75,65,53,17.43,broken clouds,2022-02-26 05:22:29
557,Mount Gambier,AU,-37.8333,140.7667,79.56,47,7,12.91,clear sky,2022-02-26 05:22:25
558,Portland,US,45.5234,-122.6762,39.61,60,0,10.0,clear sky,2022-02-26 05:20:07
559,Bozova,TR,37.3625,38.5267,45.52,85,95,3.33,overcast clouds,2022-02-26 05:22:30
560,College,US,64.8569,-147.8028,38.86,64,75,10.36,broken clouds,2022-02-26 05:22:30
561,Aketi,CD,2.7388,23.7833,68.81,71,50,3.02,scattered clouds,2022-02-26 05:22:30
562,Constantine,DZ,36.365,6.6147,40.41,93,40,5.75,scattered clouds,2022-02-26 05:18:56
563,Ajdabiya,LY,30.7554,20.2263,51.67,74,87,4.7,overcast clouds,2022-02-26 05:22:31
564,Wewak,PG,-3.5534,143.6268,83.14,78,95,16.53,light rain,2022-02-26 05:22:32
565,Kiunga,PG,-6.1219,141.2906,91.81,48,96,2.75,moderate rain,2022-02-26 05:22:32
566,Okha,RU,53.5739,142.9478,13.98,75,10,12.44,clear sky,2022-02-26 05:22:33
567,Muravlenko,RU,63.7898,74.523,10.38,94,98,11.34,overcast clouds,2022-02-26 05:22:33
568,Pochutla,MX,15.7432,-96.4661,76.82,80,1,3.8,clear sky,2022-02-26 05:22:33
569,Nyazepetrovsk,RU,56.0531,59.6028,17.62,97,96,2.98,overcast clouds,2022-02-26 05:22:34
570,Odzak,BA,45.0111,18.3267,39.09,71,100,5.06,overcast clouds,2022-02-26 05:22:34
571,Cidreira,BR,-30.1811,-50.2056,74.53,94,36,6.35,scattered clouds,2022-02-26 05:22:34
572,Presidente Medici,BR,-11.1753,-61.9014,71.92,98,19,2.71,light rain,2022-02-26 05:22:34
573,Valledupar,CO,10.4631,-73.2532,74.37,68,16,11.97,few clouds,2022-02-26 05:18:47
574,Clarence Town,AU,-32.5833,151.7833,72.86,96,100,3.15,light rain,2022-02-26 05:22:35
575,Guadalupe Y Calvo,MX,26.1,-106.9667,42.57,32,97,5.57,overcast clouds,2022-02-26 05:22:35
576,Kisangani,CD,0.5167,25.2,70.72,89,77,2.1,broken clouds,2022-02-26 05:22:35
577,Pangnirtung,CA,66.1451,-65.7125,-23.35,98,100,2.35,overcast clouds,2022-02-26 05:22:36
578,Torquay,GB,50.4638,-3.5143,45.36,69,83,5.01,broken clouds,2022-02-26 05:22:36
579,Dovbysh,UA,50.3733,27.9874,31.44,87,79,5.59,broken clouds,2022-02-26 05:22:36
580,Yizheng,CN,24.6706,103.4296,63.34,40,23,9.51,few clouds,2022-02-26 05:22:37
581,Whyalla,AU,-33.0333,137.5833,80.17,44,36,15.61,scattered clouds,2022-02-26 05:22:37
582,Abu Samrah,SY,35.3029,37.1841,47.28,91,60,4.56,broken clouds,2022-02-26 05:22:37
583,Aljezur,PT,37.3191,-8.8033,56.26,87,99,7.9,overcast clouds,2022-02-26 05:22:38
584,Khor,RU,47.8861,134.9464,25.54,91,100,14.45,light snow,2022-02-26 05:22:38
585,Quatre Cocos,MU,-20.2078,57.7625,84.31,81,29,12.37,light rain,2022-02-26 05:22:38
586,Seydi,TM,39.4816,62.9137,55.65,36,2,11.63,clear sky,2022-02-26 05:22:38
587,Coihueco,CL,-36.6167,-71.8333,48.94,100,4,0.0,clear sky,2022-02-26 05:22:39
588,Warri,NG,5.5167,5.75,76.71,93,100,2.57,overcast clouds,2022-02-26 05:22:39
589,Itarema,BR,-2.9248,-39.9167,78.15,80,58,8.55,broken clouds,2022-02-26 05:22:39
590,Wesselsbron,ZA,-27.8549,26.3658,61.68,76,100,5.64,overcast clouds,2022-02-26 05:22:40
591,Adelaide,AU,-34.9333,138.6,90.55,45,0,18.41,clear sky,2022-02-26 05:19:42
592,Kosh-Agach,RU,50.0,88.6667,6.17,89,94,1.88,overcast clouds,2022-02-26 05:22:40
593,Dwarka,IN,22.2394,68.9678,75.29,56,0,9.08,clear sky,2022-02-26 05:22:40
594,Jiuquan,CN,39.7432,98.5174,41.02,18,33,4.92,scattered clouds,2022-02-26 05:22:41
595,Bedford,GB,52.1346,-0.4663,35.91,88,65,7.16,broken clouds,2022-02-26 05:21:25
596,Daru,PG,-9.0763,143.2092,86.54,63,97,8.95,overcast clouds,2022-02-26 05:22:41
597,Paamiut,GL,61.994,-49.6678,-4.61,93,100,17.45,overcast clouds,2022-02-26 05:22:41
598,Saint Cloud,US,45.5608,-94.1625,5.23,78,0,5.75,clear sky,2022-02-26 05:22:42
599,Vila Verde,PT,41.6473,-8.4372,52.34,64,30,5.46,scattered clouds,2022-02-26 05:22:42
600,Dekar,BW,-21.5333,21.9333,67.66,71,56,7.58,broken clouds,2022-02-26 05:22:42
601,Palmerston,AU,-12.486,130.9833,80.58,86,75,10.36,heavy intensity rain,2022-02-26 05:22:43
602,Sebring,US,27.4956,-81.4409,69.53,88,0,5.75,clear sky,2022-02-26 05:22:29
603,Manchester,GB,53.4809,-2.2374,40.51,84,76,2.3,broken clouds,2022-02-26 05:20:05
604,Palafrugell,ES,41.9174,3.1631,49.42,30,18,11.01,few clouds,2022-02-26 05:22:43
605,Waiuku,NZ,-37.25,174.75,78.98,72,3,7.94,clear sky,2022-02-26 05:22:44
606,Sibolga,ID,1.7427,98.7792,82.44,78,61,3.56,broken clouds,2022-02-26 05:22:44
607,Sale,MA,34.0389,-6.8166,59.76,100,75,0.0,broken clouds,2022-02-26 05:22:44
608,Suzun,RU,53.7841,82.3116,24.58,85,82,9.13,broken clouds,2022-02-26 05:22:45
609,Dmanisi,GE,41.5251,44.3472,38.14,72,77,5.7,broken clouds,2022-02-26 05:22:45
610,Lamesa,US,32.7376,-101.951,29.46,48,99,13.04,overcast clouds,2022-02-26 05:22:46
611,Ambilobe,MG,-13.2,49.05,79.36,87,100,3.76,overcast clouds,2022-02-26 05:22:46
612,Nampula,MZ,-15.1165,39.2666,73.35,94,75,0.0,fog,2022-02-26 05:22:46
613,Cabo Rojo,PR,18.0866,-67.1457,72.97,87,2,6.17,clear sky,2022-02-26 05:22:47
614,Porto-Vecchio,FR,41.591,9.2795,47.73,76,40,11.5,scattered clouds,2022-02-26 05:22:47
615,Pervomayskoye,RU,43.919,46.7102,44.56,81,51,10.2,broken clouds,2022-02-26 05:22:47
616,Waiouru,NZ,-39.4833,175.6667,64.85,45,1,7.23,clear sky,2022-02-26 05:22:48
617,Luganville,VU,-15.5333,167.1667,78.96,90,100,3.94,moderate rain,2022-02-26 05:22:48
618,Balikpapan,ID,-1.2675,116.8289,86.99,66,40,6.91,scattered clouds,2022-02-26 05:22:48
619,Bathurst,AU,-33.4166,149.5806,70.29,82,100,8.34,light rain,2022-02-26 05:22:49
620,San Juan,AR,-31.5375,-68.5364,76.51,48,0,6.67,clear sky,2022-02-26 05:22:49
621,Yerbogachen,RU,61.2767,108.0108,5.76,78,99,6.38,overcast clouds,2022-02-26 05:22:49
622,Lazo,RU,43.3817,133.9014,38.23,60,41,12.84,scattered clouds,2022-02-26 05:22:50
623,Harboore,DK,56.6175,8.1807,35.98,77,2,9.31,clear sky,2022-02-26 05:22:50
624,Talcahuano,CL,-36.7167,-73.1167,60.48,94,100,4.61,overcast clouds,2022-02-26 05:22:04
625,Atbasar,KZ,51.8,68.3333,24.98,86,100,4.85,overcast clouds,2022-02-26 05:22:50
626,Deniliquin,AU,-35.5333,144.9667,79.48,50,80,11.88,broken clouds,2022-02-26 05:22:51
627,Nesna,NO,66.1967,13.0213,28.24,71,96,9.57,overcast clouds,2022-02-26 05:22:51
628,Cozumel,MX,20.5083,-86.9458,75.18,73,5,10.87,clear sky,2022-02-26 05:20:28
629,Thonon-Les-Bains,FR,46.25,6.5,29.32,82,7,5.32,clear sky,2022-02-26 05:22:51
630,Hoopstad,ZA,-27.8327,25.9083,64.49,71,96,4.65,overcast clouds,2022-02-26 05:22:52
631,Santa Fe,AR,-31.6333,-60.7,77.99,84,18,1.01,light rain,2022-02-26 05:22:52
632,Kampot,KH,10.6167,104.1833,84.25,47,97,10.8,overcast clouds,2022-02-26 05:22:52
633,Saint-Leu,RE,-21.15,55.2833,83.26,80,82,3.49,broken clouds,2022-02-26 05:22:53
634,Ugoofaaru,MV,5.6667,73.0,83.01,70,41,11.9,scattered clouds,2022-02-26 05:21:16
635,Vaitape,PF,-16.5167,-151.75,82.04,73,16,16.2,few clouds,2022-02-26 05:22:53
636,Arlit,NE,18.7369,7.3853,62.89,14,0,3.69,clear sky,2022-02-26 05:22:53
637,Mehriz,IR,31.5917,54.4318,57.7,36,39,4.52,scattered clouds,2022-02-26 05:22:54
638,Kamaishi,JP,39.2667,141.8833,43.75,67,60,16.11,broken clouds,2022-02-26 05:22:54
639,Mangrol,IN,21.1167,70.1167,76.44,45,18,8.21,few clouds,2022-02-26 05:22:54
640,Khilok,RU,51.3674,110.4676,22.51,82,100,14.23,overcast clouds,2022-02-26 05:22:55
641,Awbari,LY,26.5921,12.7805,53.37,27,0,7.72,clear sky,2022-02-26 05:22:55
642,Nizhniy Baskunchak,RU,48.2198,46.8311,40.55,81,100,13.33,overcast clouds,2022-02-26 05:22:56
643,Makokou,GA,0.5738,12.8642,70.56,86,18,1.01,few clouds,2022-02-26 05:22:56
644,Muisne,EC,0.6,-80.0333,74.66,89,95,3.94,light rain,2022-02-26 05:22:56
645,Houma,US,29.5958,-90.7195,54.0,84,38,8.46,scattered clouds,2022-02-26 05:22:57
646,Ayr,GB,55.4627,-4.6339,47.5,76,100,17.27,overcast clouds,2022-02-26 05:22:57
647,Surab,PK,28.4914,66.2585,50.68,18,0,8.14,clear sky,2022-02-26 05:22:57
648,Roma,US,43.2128,-75.4557,16.43,73,75,0.0,broken clouds,2022-02-26 05:21:21
649,Kaohsiung,TW,22.6163,120.3133,78.75,68,40,8.05,scattered clouds,2022-02-26 05:22:58
650,Tessalit,ML,20.1986,1.0114,70.34,13,7,10.25,clear sky,2022-02-26 05:22:58
651,Apatity,RU,67.5641,33.4031,23.32,88,100,14.47,light snow,2022-02-26 05:22:57
652,Padang,ID,-0.9492,100.3543,86.05,64,76,6.67,broken clouds,2022-02-26 05:19:45
653,Sur,OM,22.5667,59.5289,78.03,44,0,1.07,clear sky,2022-02-26 05:22:58
654,Onda,ES,39.9667,-0.25,51.87,73,60,3.22,broken clouds,2022-02-26 05:22:59
655,Tobermory,CA,45.2501,-81.6665,14.31,91,16,1.86,few clouds,2022-02-26 05:18:20
656,Seymchan,RU,62.8833,152.4333,-1.44,83,100,8.28,overcast clouds,2022-02-26 05:22:59
657,Manicore,BR,-5.8092,-61.3003,70.92,98,100,1.25,overcast clouds,2022-02-26 05:22:59
